[{"value": 12847, "lon": 44.7595882, "lat": 39.7685266, "name": " Armash Fishponds", "locality_id": "L4673947"}, {"value": 3545, "lon": 45.0431728, "lat": 40.5013173, "name": "Norashen Reserve", "locality_id": "L4673588"}, {"value": 2770, "lon": 44.2521572, "lat": 40.3916481, "name": "Mt Aragats Summit Road", "locality_id": "L4674108"}, {"value": 2473, "lon": 44.860162, "lat": 40.7383379, "name": "Dilijan City Park", "locality_id": "L22898637"}, {"value": 2342, "lon": 43.833473, "lat": 40.827848, "name": "Gyumri - Ani", "locality_id": "L30614566"}, {"value": 1932, "lon": 45.2348328, "lat": 39.6849966, "name": "Noravank Monastery", "locality_id": "L1030517"}, {"value": 1874, "lon": 44.4771696, "lat": 40.160791, "name": "Yerevanyan Lake", "locality_id": "L22342419"}, {"value": 1728, "lon": 44.707945, "lat": 39.9415528, "name": "Vedi Springs", "locality_id": "L4783715"}, {"value": 1695, "lon": 45.2471201, "lat": 40.0379007, "name": "Selim/Vardenyats Pass--North", "locality_id": "L9777367"}, {"value": 1543, "lon": 45.1480616, "lat": 39.8248439, "name": "Mount Gndasar", "locality_id": "L9777931"}, {"value": 1430, "lon": 44.8386931, "lat": 39.7947218, "name": "Oorts gorge", "locality_id": "L9778203"}, {"value": 1220, "lon": 44.5313822, "lat": 40.7971854, "name": "Griboedovi 3", "locality_id": "L27062955"}, {"value": 1177, "lon": 44.7426581, "lat": 39.9410795, "name": "Vedi Hills", "locality_id": "L4673884"}, {"value": 1138, "lon": 44.7168016, "lat": 39.9286947, "name": "Vedi Gorge", "locality_id": "L4794016"}, {"value": 1081, "lon": 44.4919817, "lat": 40.8041382, "name": "Sayat Nova Park", "locality_id": "L27444928"}, {"value": 946, "lon": 44.5457806, "lat": 40.7899285, "name": "Busich Hills", "locality_id": "L32675913"}, {"value": 941, "lon": 44.1826129, "lat": 40.4730658, "name": "Aragats Alpine State Sanctuary", "locality_id": "L4794188"}, {"value": 941, "lon": 44.8495594, "lat": 40.7583265, "name": "Ecokayan", "locality_id": "L26432130"}, {"value": 876, "lon": 44.7310343, "lat": 40.1104813, "name": "Garni Temple and Gorge", "locality_id": "L9930859"}, {"value": 845, "lon": 44.5561588, "lat": 40.2119879, "name": "Yerevan Botanical Garden", "locality_id": "L7155518"}, {"value": 783, "lon": 44.4894562, "lat": 40.1867344, "name": "Tsitsernakaberd Memorial Park", "locality_id": "L10249962"}, {"value": 740, "lon": 43.8354492, "lat": 40.7850907, "name": "Gyumri - Central Park", "locality_id": "L30614621"}, {"value": 735, "lon": 44.6149206, "lat": 40.1784383, "name": "Jrvezh Forest Park", "locality_id": "L7155363"}, {"value": 704, "lon": 44.3799019, "lat": 40.0443062, "name": "Masis Fish Ponds", "locality_id": "L6295709"}, {"value": 686, "lon": 44.8743988, "lat": 40.7440663, "name": "Dilijan, Ordzhonikidze St", "locality_id": "L26678827"}, {"value": 671, "lon": 45.2500955, "lat": 40.1743237, "name": "Sevan NP--Lichk (\u053c\u056b\u0573\u0584)", "locality_id": "L11602434"}, {"value": 641, "lon": 44.8725499, "lat": 40.742802, "name": "78 Myasnikyan Street, Dilijan, Tavush Province, AM (40,743, 44,873)", "locality_id": "L27506074"}, {"value": 616, "lon": 45.2337456, "lat": 39.9504991, "name": "Selim/Vardenyats Pass", "locality_id": "L6295816"}, {"value": 600, "lon": 44.4884951, "lat": 40.8150849, "name": "Vanadzor Bus Station", "locality_id": "L27292086"}, {"value": 562, "lon": 44.8914557, "lat": 40.8024514, "name": "Dilijan NP--Haghartsin \u057e\u0561\u0576\u0561\u056f\u0561\u0576 \u0570\u0561\u0574\u0561\u056c\u056b\u0580 / Haghartsin Monastery Complex", "locality_id": "L9919442"}, {"value": 541, "lon": 44.9567083, "lat": 40.5114083, "name": "Pond South of Sevan NP", "locality_id": "L26529406"}, {"value": 491, "lon": 44.461045, "lat": 40.827485, "name": "Chemical Lake Trail", "locality_id": "L29801819"}, {"value": 476, "lon": 44.5759964, "lat": 39.8783248, "name": "Khor Virab", "locality_id": "L10495741"}, {"value": 449, "lon": 43.6203575, "lat": 41.0594208, "name": "Lake Arpi NP", "locality_id": "L4781043"}, {"value": 449, "lon": 44.865024, "lat": 40.7888499, "name": "Dilijan NP", "locality_id": "L4671052"}, {"value": 427, "lon": 44.7415112, "lat": 40.1155203, "name": "Symphony of Stones", "locality_id": "L29203197"}, {"value": 423, "lon": 44.4873962, "lat": 40.7923155, "name": "Vanadzor Botanical Garden", "locality_id": "L27609784"}, {"value": 420, "lon": 44.4964699, "lat": 40.1829535, "name": "Children's Railway / Children's Railway", "locality_id": "L22321369"}, {"value": 406, "lon": 44.88718, "lat": 39.949424, "name": "Caucasus Wildlife Refuge", "locality_id": "L5371309"}, {"value": 398, "lon": 44.9549678, "lat": 40.5187916, "name": "Sevan NP--Lchashen (\u053c\u0573\u0561\u0577\u0565\u0576) Bay", "locality_id": "L17390966"}, {"value": 397, "lon": 45.0112653, "lat": 40.5645391, "name": "Sevanavank Monastery", "locality_id": "L5723890"}, {"value": 375, "lon": 44.9354609, "lat": 40.754995, "name": "Dilijan National Park", "locality_id": "L9114551"}, {"value": 361, "lon": 44.5073195, "lat": 40.1751882, "name": "English & Children's Parks", "locality_id": "L10194329"}, {"value": 358, "lon": 44.8184681, "lat": 40.1404996, "name": "Geghard Monastery", "locality_id": "L12052432"}, {"value": 335, "lon": 44.7119737, "lat": 41.093729, "name": "Haghpat Monastery", "locality_id": "L7290455"}, {"value": 334, "lon": 44.52457, "lat": 40.19518, "name": "Victory Park", "locality_id": "L3670710"}, {"value": 327, "lon": 44.4421522, "lat": 40.2956609, "name": "Yeghvardi Plains", "locality_id": "L26848710"}, {"value": 325, "lon": 44.8745155, "lat": 40.7388032, "name": "Drunken Forest", "locality_id": "L25554078"}, {"value": 319, "lon": 44.985772, "lat": 40.552132, "name": "Hrazdan Estuary", "locality_id": "L22477004"}, {"value": 313, "lon": 44.2261237, "lat": 40.3892533, "name": "Amberd Fortress", "locality_id": "L4780419"}, {"value": 304, "lon": 44.5739794, "lat": 39.8931016, "name": "Khor Virap Sanctuary", "locality_id": "L3954133"}, {"value": 304, "lon": 44.3075803, "lat": 41.0619746, "name": "Saratovka Lakes", "locality_id": "L26939963"}, {"value": 289, "lon": 44.6258426, "lat": 40.1451045, "name": "Erebuni State Reserve (Erebuni \u0561\u0580\u0563\u0565\u056c\u0578\u0581)", "locality_id": "L7155419"}, {"value": 284, "lon": 44.910608, "lat": 40.798107, "name": "Dilijan NP", "locality_id": "L23910166"}, {"value": 257, "lon": 45.3095214, "lat": 40.4679753, "name": "Artanish Peninsula", "locality_id": "L25852925"}, {"value": 230, "lon": 43.8259167, "lat": 40.7810868, "name": "Gyumri - Fortress", "locality_id": "L30658418"}, {"value": 228, "lon": 46.2675691, "lat": 38.8979135, "name": "Meghri Gorge", "locality_id": "L4793950"}, {"value": 217, "lon": 46.2500435, "lat": 39.3794673, "name": "Tatev Monastery", "locality_id": "L5470763"}, {"value": 208, "lon": 45.171798, "lat": 39.839229, "name": "Mount Gndasar\u20147200-5700\u2019", "locality_id": "L23976098"}, {"value": 205, "lon": 45.4263306, "lat": 39.7080974, "name": "Zedea Area", "locality_id": "L26450636"}, {"value": 201, "lon": 44.8387943, "lat": 39.8173841, "name": "Gorge east of Surenavan", "locality_id": "L15098463"}, {"value": 196, "lon": 45.8205843, "lat": 39.657434, "name": "Spandarian Reservoir", "locality_id": "L7291163"}, {"value": 195, "lon": 45.2970171, "lat": 39.6573151, "name": "Gnishik Village", "locality_id": "L7715743"}, {"value": 190, "lon": 45.2739716, "lat": 40.3902796, "name": "Sevan NP", "locality_id": "L4793909"}, {"value": 186, "lon": 43.8301985, "lat": 40.7892219, "name": "Gyumri - Canal", "locality_id": "L31006046"}, {"value": 178, "lon": 44.5858693, "lat": 40.4392491, "name": "Arzakan", "locality_id": "L19034790"}, {"value": 175, "lon": 43.9054441, "lat": 40.6613273, "name": "Vardakar Reservoir", "locality_id": "L4810332"}, {"value": 163, "lon": 44.8231244, "lat": 39.9236847, "name": "Urtsadzor", "locality_id": "L5566244"}, {"value": 162, "lon": 44.9105188, "lat": 40.7980221, "name": "Dilijan National Park", "locality_id": "L31474957"}, {"value": 159, "lon": 44.4450292, "lat": 40.0014343, "name": "Ararat Province, AM (40.001, 44.445)", "locality_id": "L32495805"}, {"value": 151, "lon": 46.2580633, "lat": 38.9942391, "name": "Arevik NP", "locality_id": "L4793919"}, {"value": 148, "lon": 44.9973392, "lat": 40.7297304, "name": "Goshavank", "locality_id": "L16539283"}, {"value": 147, "lon": 44.7333241, "lat": 39.8100525, "name": "Ararat ( Ponds", "locality_id": "L4781357"}, {"value": 142, "lon": 44.5772647, "lat": 40.1220166, "name": "Old Verin Jrashen", "locality_id": "L22541823"}, {"value": 140, "lon": 45.4281402, "lat": 39.7131199, "name": "E117, Vayots Dzor Province, AM (39.713, 45.428)", "locality_id": "L19247389"}, {"value": 140, "lon": 43.8457515, "lat": 40.7876676, "name": "Gyumri - City Center", "locality_id": "L31041666"}, {"value": 136, "lon": 45.1833967, "lat": 39.7207767, "name": "H40, Areni, Vajots Dzor, AM (39,721, 45,183)", "locality_id": "L31728030"}, {"value": 135, "lon": 45.4869175, "lat": 39.8994111, "name": "Vardahovit Village", "locality_id": "L7626518"}, {"value": 129, "lon": 44.9083221, "lat": 39.8683463, "name": "Shaghap Valley", "locality_id": "L4810251"}, {"value": 126, "lon": 44.6016377, "lat": 40.4376408, "name": "arzakan", "locality_id": "L14733063"}, {"value": 126, "lon": 44.869172, "lat": 39.959588, "name": "Vedi Urtsadzor", "locality_id": "L20641015"}, {"value": 125, "lon": 43.7226248, "lat": 41.0767869, "name": "Ardenis", "locality_id": "L4811917"}, {"value": 123, "lon": 46.4643145, "lat": 39.0165407, "name": "Shikahogh State Reserve", "locality_id": "L7155036"}, {"value": 121, "lon": 44.292993, "lat": 40.1630956, "name": "Etchmiadzin Vagharshapat City", "locality_id": "L11853545"}, {"value": 119, "lon": 45.2031574, "lat": 39.7315465, "name": "Areni-1 Cave Area", "locality_id": "L22317006"}, {"value": 118, "lon": 44.9618697, "lat": 40.7526051, "name": "Parz lich", "locality_id": "L26564853"}, {"value": 118, "lon": 45.4280651, "lat": 39.7127496, "name": "Road to Zedea", "locality_id": "L9157578"}, {"value": 117, "lon": 43.7498438, "lat": 40.6691617, "name": "Akhurian Reservoir", "locality_id": "L4810268"}, {"value": 116, "lon": 44.2343916, "lat": 40.2852117, "name": "Ujan lower fields", "locality_id": "L9205201"}, {"value": 115, "lon": 46.2550306, "lat": 38.9070908, "name": "Gesi Dzor", "locality_id": "L9170089"}, {"value": 114, "lon": 44.869271, "lat": 40.739578, "name": "Dilijan", "locality_id": "L23910238"}, {"value": 114, "lon": 44.7620958, "lat": 39.7848073, "name": "Ararat Province, AM (39,785, 44,762)", "locality_id": "L35375902"}, {"value": 113, "lon": 45.0260128, "lat": 40.5139674, "name": "\u0531nanun janaparh, Gegharkunik Province, AM (40.514, 45.026)", "locality_id": "L34482474"}, {"value": 109, "lon": 44.1941787, "lat": 40.5212358, "name": "Mt Aragats", "locality_id": "L17107070"}, {"value": 108, "lon": 44.251374, "lat": 40.401067, "name": "Mount Aragats\u20147300-7700\u2019", "locality_id": "L23967037"}, {"value": 108, "lon": 44.5835885, "lat": 40.1201748, "name": "Old Verin Jrashen", "locality_id": "L23799402"}, {"value": 108, "lon": 45.0253775, "lat": 40.5135858, "name": "\u0531nanun janaparh, Gegharkunik Province, AM (40.514, 45.025)", "locality_id": "L19229330"}, {"value": 108, "lon": 44.9270795, "lat": 39.8371136, "name": "Road_to_Surb_Karapet", "locality_id": "L31635080"}, {"value": 106, "lon": 44.3596018, "lat": 41.0345399, "name": "M3 Lakes between Getavan and Stepanavan", "locality_id": "L26939821"}, {"value": 105, "lon": 45.8957204, "lat": 39.5692653, "name": "(39,569, 45,896)", "locality_id": "L9269934"}, {"value": 104, "lon": 44.2120904, "lat": 40.44756, "name": "Road to K'ari Lich", "locality_id": "L19361420"}, {"value": 100, "lon": 45.6665548, "lat": 39.8406642, "name": "Jermuk, Vayots Dzor Province, AM (39,841, 45,667)", "locality_id": "L25606571"}, {"value": 100, "lon": 46.2647313, "lat": 38.8925619, "name": "Meghri Pond", "locality_id": "L9169968"}, {"value": 100, "lon": 44.9168274, "lat": 40.0369891, "name": "Khosrov Forest State Reserve", "locality_id": "L7155029"}, {"value": 99, "lon": 44.3958485, "lat": 40.3810909, "name": "Saghmosavank Monastery", "locality_id": "L5471600"}, {"value": 99, "lon": 44.943728, "lat": 39.861409, "name": "Auto selected 39.86141, 44.94373", "locality_id": "L23825297"}, {"value": 98, "lon": 44.5017625, "lat": 40.1762727, "name": "Mesrop Mashtots Avenue, Yerevan, Yerevan, AM (40.176, 44.502)", "locality_id": "L35341906"}, {"value": 97, "lon": 45.0790433, "lat": 40.9161067, "name": "Tavush Province, AM (40,916, 45,079) Apaga", "locality_id": "L26627244"}, {"value": 96, "lon": 44.375915, "lat": 40.0520733, "name": "Masis Farmland", "locality_id": "L27510867"}, {"value": 96, "lon": 44.5094646, "lat": 40.1819613, "name": "Yerevan Center", "locality_id": "L30779416"}, {"value": 95, "lon": 44.7489882, "lat": 40.5060576, "name": "Aghbyurak/Hrazdan Reservoir", "locality_id": "L4778624"}, {"value": 95, "lon": 45.171778, "lat": 39.839127, "name": "Auto selected 39.83913, 45.17178", "locality_id": "L24541510"}, {"value": 94, "lon": 44.754353, "lat": 39.763768, "name": "Armash", "locality_id": "L33433582"}, {"value": 92, "lon": 45.2193313, "lat": 40.2982448, "name": "Lake Sevan - Shoreline Cliffs on Road M10", "locality_id": "L11337661"}, {"value": 92, "lon": 44.493711, "lat": 39.979688, "name": "Auto selected 39.97969, 44.49371", "locality_id": "L23825316"}, {"value": 92, "lon": 44.910761, "lat": 40.7979901, "name": "Old Mill, Tavush Province", "locality_id": "L31513266"}, {"value": 91, "lon": 44.7658968, "lat": 39.7656237, "name": "Armash IBA", "locality_id": "L7400058"}, {"value": 91, "lon": 44.5150137, "lat": 40.185398, "name": "Yerevan", "locality_id": "L7625943"}, {"value": 90, "lon": 43.8192342, "lat": 41.0402845, "name": "Krasar-Mets Sepasar Road, Mets Sepasar, Shirak Province, AM (41.04, 43.819)", "locality_id": "L32790504"}, {"value": 90, "lon": 45.190058, "lat": 39.715907, "name": "H40 (39.71591, 45.19006)", "locality_id": "L23966858"}, {"value": 90, "lon": 44.4394515, "lat": 40.8694859, "name": "Bazum", "locality_id": "L27180128"}, {"value": 89, "lon": 44.8442135, "lat": 40.4289665, "name": "Armenia", "locality_id": "L11847799"}, {"value": 89, "lon": 44.2917383, "lat": 41.074365, "name": "\u0531nanun janaparh, Saratovka, Lori Province, AM (41,074, 44,292)", "locality_id": "L26929491"}, {"value": 89, "lon": 45.0135612, "lat": 39.8138106, "name": "Leopard Canyon", "locality_id": "L7684216"}, {"value": 89, "lon": 44.7720867, "lat": 39.92178, "name": "Vosketap-Vedi-Urtsadzor-Lanjar Highway, Ararat Province, AM (39,922, 44,772)", "locality_id": "L31808900"}, {"value": 89, "lon": 45.1533902, "lat": 39.7204081, "name": "Arpa River near Areni", "locality_id": "L7618981"}, {"value": 88, "lon": 44.7507031, "lat": 39.920815, "name": "Pond beside Hotel Restaurant Oazis", "locality_id": "L31635351"}, {"value": 87, "lon": 43.8061952, "lat": 41.0213478, "name": "Shirak Province, AM (41.021, 43.806)", "locality_id": "L32790506"}, {"value": 87, "lon": 44.563669, "lat": 40.2046076, "name": "Tatul Krpeyan Park", "locality_id": "L11841666"}, {"value": 86, "lon": 44.9299328, "lat": 40.2895257, "name": "Kotajk, AM (40,29, 44,93)", "locality_id": "L31499749"}, {"value": 86, "lon": 44.4789433, "lat": 40.9369237, "name": "Stepanavan Dendropark", "locality_id": "L7155616"}, {"value": 86, "lon": 45.2479208, "lat": 40.1696612, "name": "Geghark'unik', AM (40,17, 45,248)", "locality_id": "L9872452"}, {"value": 86, "lon": 45.2015132, "lat": 39.7139543, "name": "Amaghu Valley  and  Noravank Monastery (IBA)", "locality_id": "L33460755"}, {"value": 84, "lon": 44.246198, "lat": 40.420855, "name": "Mount Aragats\u20148200\u2019", "locality_id": "L23975930"}, {"value": 84, "lon": 45.0405824, "lat": 40.5124605, "name": "Geghark'unik', AM (40,512, 45,041)", "locality_id": "L9878901"}, {"value": 84, "lon": 44.8439083, "lat": 40.6993067, "name": "House Of Composers", "locality_id": "L26885971"}, {"value": 84, "lon": 44.5625622, "lat": 39.9257785, "name": "Ararat Province, AM (39,926, 44,563)", "locality_id": "L24981109"}, {"value": 84, "lon": 44.7133237, "lat": 39.9344464, "name": "Ararat, AM (39,934, 44,713)", "locality_id": "L9248982"}, {"value": 82, "lon": 44.3680555, "lat": 40.0306385, "name": "Ranchpar, Ararat Province, AM (40.031, 44.368)", "locality_id": "L32652439"}, {"value": 81, "lon": 46.24737, "lat": 39.38365, "name": "Tatev Village", "locality_id": "L31545456"}, {"value": 80, "lon": 45.221596, "lat": 39.681926, "name": "Arpa Protected Landscape (39.6819,45.2216)", "locality_id": "L24496414"}, {"value": 80, "lon": 44.8983885, "lat": 40.7524644, "name": "Hovsepyan Street, Dilijan", "locality_id": "L27036235"}, {"value": 80, "lon": 44.9087, "lat": 40.8001074, "name": "Haghartsin Road, Tavush Province, AM (40.8, 44.909)", "locality_id": "L19229342"}, {"value": 79, "lon": 44.8998517, "lat": 40.7507475, "name": "Mountain Plateau Ovsepyan", "locality_id": "L25554213"}, {"value": 78, "lon": 44.491668, "lat": 40.8048429, "name": "Sayat Nova park", "locality_id": "L22371433"}, {"value": 78, "lon": 45.2388022, "lat": 39.975386, "name": "Selim Pass east side farm M10, Gegharkunik Province, AM (39.975, 45.239)", "locality_id": "L24412722"}, {"value": 76, "lon": 43.8311047, "lat": 40.7498914, "name": "East 691, Gyumri, Shirak Province, AM (40,75, 43,831)", "locality_id": "L24939462"}, {"value": 75, "lon": 43.755988, "lat": 40.843165, "name": "Marmashen Monastery Area", "locality_id": "L30231557"}, {"value": 75, "lon": 45.5741897, "lat": 39.7128217, "name": "Jermuk Gorge", "locality_id": "L11598332"}, {"value": 74, "lon": 44.5325217, "lat": 40.786345, "name": "\u0412\u0430\u043d\u0430\u0434\u0437\u043e\u0440, \u041b\u043e\u0440\u0438, AM (40,786, 44,533)", "locality_id": "L29302064"}, {"value": 74, "lon": 44.9679134, "lat": 40.5485566, "name": "Sevan City", "locality_id": "L32677453"}, {"value": 72, "lon": 44.6285768, "lat": 41.0234259, "name": "Debed Gorge", "locality_id": "L10282788"}, {"value": 72, "lon": 45.2084339, "lat": 39.7039762, "name": "Noravank IBA", "locality_id": "L16614528"}, {"value": 72, "lon": 45.6746983, "lat": 39.8423957, "name": "(39,842, 45,675)", "locality_id": "L7353273"}, {"value": 72, "lon": 44.5253208, "lat": 40.1823796, "name": "Yerevan State University", "locality_id": "L25159466"}, {"value": 72, "lon": 44.7099746, "lat": 40.5263124, "name": "Khachik Muradyan Street, Tsaghkadzor, Kotayk Province, AM (40,526, 44,71)", "locality_id": "L21446974"}, {"value": 72, "lon": 45.20961, "lat": 39.701479, "name": "Noravank Monastery Rd", "locality_id": "L23975963"}, {"value": 72, "lon": 45.212349, "lat": 40.330838, "name": "M-10 (40.33084, 45.21235)", "locality_id": "L23986978"}, {"value": 71, "lon": 44.887777, "lat": 40.737923, "name": "Dilijan National Park, Armenia", "locality_id": "L23101694"}, {"value": 71, "lon": 45.1701329, "lat": 39.8508277, "name": "Mt Gndasar, Vayots Dzor Province, AM (39.851, 45.17)", "locality_id": "L24388724"}, {"value": 70, "lon": 44.77134, "lat": 39.78875, "name": "Armash Fish Ponds", "locality_id": "L22205498"}, {"value": 68, "lon": 45.2035567, "lat": 39.7255533, "name": "Noravank Monastery Road, Vayots Dzor Province, AM (39,726, 45,204)", "locality_id": "L31727951"}, {"value": 68, "lon": 44.9428911, "lat": 40.5213852, "name": "Lchasen", "locality_id": "L16614373"}, {"value": 68, "lon": 44.4645283, "lat": 40.973635, "name": "Gyulagarak", "locality_id": "L26928777"}, {"value": 68, "lon": 44.923841, "lat": 40.760161, "name": "Dilijan park resort", "locality_id": "L30779009"}, {"value": 66, "lon": 44.1943774, "lat": 40.2838012, "name": "Ujan", "locality_id": "L9203511"}, {"value": 66, "lon": 44.3085546, "lat": 41.0649023, "name": "Unnamed Road, Saratovka, Lori Province, AM (41,065, 44,309)", "locality_id": "L9882054"}, {"value": 66, "lon": 44.7577751, "lat": 39.7831851, "name": "Armash Wetlands 14, Ararat Province, AM (39.783, 44.758)", "locality_id": "L31547584"}, {"value": 66, "lon": 43.7650618, "lat": 40.6930378, "name": "\u0531nanun janaparh, Bayandur, Shirak Province, AM (40.693, 43.765)", "locality_id": "L32658823"}, {"value": 65, "lon": 44.3684459, "lat": 40.2995747, "name": "Surb Sargis Street, Ashtarak", "locality_id": "L25461789"}, {"value": 65, "lon": 45.1053614, "lat": 40.4316935, "name": "Hayravank, Gegharkunik Province, AM (40,432, 45,105)", "locality_id": "L18758231"}, {"value": 65, "lon": 44.9698467, "lat": 40.6127067, "name": "Sevan Beach", "locality_id": "L27817085"}, {"value": 65, "lon": 45.238426, "lat": 39.975429, "name": "Auto selected 39.97543, 45.23843", "locality_id": "L24486808"}, {"value": 65, "lon": 45.1044992, "lat": 40.4286541, "name": "M10, Hayravank, Gegharkunik Province, AM (40,429, 45,104)", "locality_id": "L25055943"}, {"value": 64, "lon": 45.2387383, "lat": 39.9752767, "name": "M10, Gegharkunik Province, AM (39,975, 45,239)", "locality_id": "L31727840"}, {"value": 64, "lon": 45.3432, "lat": 40.477095, "name": "South Artanish Gulf", "locality_id": "L27817708"}, {"value": 64, "lon": 45.2743522, "lat": 40.5000932, "name": "Shoghakat, Gegharkunik Province, AM (40.5, 45.274)", "locality_id": "L36540550"}, {"value": 63, "lon": 44.2722027, "lat": 40.3669409, "name": "Amberd", "locality_id": "L19361272"}, {"value": 62, "lon": 44.499052, "lat": 40.211016, "name": "Nor Arabkir Park", "locality_id": "L23057908"}, {"value": 62, "lon": 44.9612121, "lat": 40.7522863, "name": "Parz Lake", "locality_id": "L9157077"}, {"value": 61, "lon": 45.2364898, "lat": 39.9493404, "name": "Vardenyats Pass, Gegharkunik Province, AM (39.949, 45.236)", "locality_id": "L24412658"}, {"value": 60, "lon": 44.7106466, "lat": 39.9576845, "name": "\u0410\u0440\u0430\u0440\u0430\u0442, AM (39,958, 44,711)", "locality_id": "L31148926"}, {"value": 60, "lon": 45.21132, "lat": 40.332385, "name": "M10, Gegharkunik Province, AM (40,332, 45,211)", "locality_id": "L31591186"}, {"value": 60, "lon": 44.5192644, "lat": 40.1735815, "name": "Circular Park", "locality_id": "L11135142"}, {"value": 60, "lon": 44.73054, "lat": 40.111344, "name": "Erevan to Grani", "locality_id": "L19502363"}, {"value": 60, "lon": 46.1973381, "lat": 38.8660431, "name": "ML Hotel, Agarak", "locality_id": "L9160920"}, {"value": 60, "lon": 44.7615885, "lat": 39.7806101, "name": "Armash Wetlands, Ararat Province, AM (39.781, 44.762)", "locality_id": "L31546111"}, {"value": 60, "lon": 45.294855, "lat": 39.841796, "name": "M-10 (39.84180, 45.29486)", "locality_id": "L23982127"}, {"value": 60, "lon": 45.0554855, "lat": 39.8457947, "name": "Ararat Province, AM (39,846, 45,055)", "locality_id": "L31938643"}, {"value": 60, "lon": 45.0646448, "lat": 40.9045069, "name": "Ijevan State Sanctuary - Lastiver Gorge", "locality_id": "L6296968"}, {"value": 60, "lon": 44.819063, "lat": 40.746557, "name": "Valley Park Dilijan", "locality_id": "L31117987"}, {"value": 60, "lon": 44.5135133, "lat": 40.810945, "name": "Pambak Hills", "locality_id": "L35989787"}, {"value": 59, "lon": 44.8653775, "lat": 40.7413816, "name": "Dilijan town", "locality_id": "L9157021"}, {"value": 58, "lon": 44.3917422, "lat": 41.0257014, "name": "Stepanavan fields", "locality_id": "L18464444"}, {"value": 58, "lon": 45.1898672, "lat": 39.7160784, "name": "Areni, H40", "locality_id": "L24394177"}, {"value": 58, "lon": 43.8035513, "lat": 41.1208453, "name": "Bavra - Lake and surrounding fields", "locality_id": "L24191139"}, {"value": 58, "lon": 44.500725, "lat": 40.186981, "name": "\u0420\u0430\u0437\u0434\u0430\u043d\u0441\u043a\u043e\u0435 \u0443\u0449\u0435\u043b\u044c\u0435, \u0415\u0440\u0435\u0432\u0430\u043d AM-\u0410\u0440\u043c\u0435\u043d\u0438\u044f 40.18698, 44.50072", "locality_id": "L21571434"}, {"value": 58, "lon": 44.639, "lat": 40.067, "name": "Yeranos mountain", "locality_id": "L23930346"}, {"value": 57, "lon": 44.7798289, "lat": 39.7849042, "name": "E117, Surenavan, Ararat Province, AM (39,785, 44,78)", "locality_id": "L9256653"}, {"value": 57, "lon": 44.273438, "lat": 40.35397, "name": "Stratovolcano Aragats", "locality_id": "L38020658"}, {"value": 57, "lon": 46.3198063, "lat": 38.9055269, "name": "Road between Alvank and Araksashen", "locality_id": "L9170030"}, {"value": 57, "lon": 44.474672, "lat": 40.837436, "name": "Auto selected 40.83744, 44.47467", "locality_id": "L30132445"}, {"value": 56, "lon": 45.1702395, "lat": 40.4167383, "name": "Sevan National Park", "locality_id": "L16614418"}, {"value": 56, "lon": 46.2269068, "lat": 38.9723554, "name": "Arevik", "locality_id": "L4793940"}, {"value": 56, "lon": 44.4269545, "lat": 40.2999179, "name": "H6, AM (40,3, 44,427)", "locality_id": "L9248641"}, {"value": 56, "lon": 44.637003, "lat": 40.173145, "name": "Charent's Arch", "locality_id": "L22370445"}, {"value": 56, "lon": 44.3363357, "lat": 40.1602467, "name": "Zvartnots Cathedral", "locality_id": "L11853550"}, {"value": 56, "lon": 45.3665533, "lat": 40.48362, "name": "Armenian Camp (40,484, 45,367)", "locality_id": "L25468301"}, {"value": 56, "lon": 44.9509216, "lat": 39.7784545, "name": "Localidad desconocida - (39,778, 44,951)", "locality_id": "L9257933"}, {"value": 56, "lon": 44.687546, "lat": 40.729377, "name": "Dilijan to Margaovit", "locality_id": "L19492988"}, {"value": 56, "lon": 44.5659098, "lat": 40.6173173, "name": "Marmarik - Artavaz", "locality_id": "L19095986"}, {"value": 56, "lon": 44.5611999, "lat": 40.1992469, "name": "Nansen Park", "locality_id": "L11755549"}, {"value": 56, "lon": 44.8158724, "lat": 39.78565, "name": "Ararat", "locality_id": "L33461531"}, {"value": 55, "lon": 45.425751, "lat": 39.709388, "name": "Auto selected 39.70939, 45.42575", "locality_id": "L24494813"}, {"value": 55, "lon": 44.894177, "lat": 40.660642, "name": "Semyonovka-Tsovagyugh Highway AM-\u0410\u0440\u043c\u0435\u043d\u0438\u044f (40.6606,44.8942)", "locality_id": "L32115417"}, {"value": 55, "lon": 44.2733574, "lat": 40.3303846, "name": "Byurakan Observatory", "locality_id": "L9941845"}, {"value": 55, "lon": 45.181552, "lat": 40.373881, "name": "Noratus Cemetery, Noratus AM-Armenia 40.37388, 45.18155", "locality_id": "L24486790"}, {"value": 54, "lon": 45.1830531, "lat": 39.7200615, "name": "Areni", "locality_id": "L31762678"}, {"value": 54, "lon": 45.272263, "lat": 40.068529, "name": "M-10 (40.06853, 45.27226)", "locality_id": "L23986966"}, {"value": 54, "lon": 44.273015, "lat": 40.36612, "name": "Mount Aragats\u20145900\u2019", "locality_id": "L23975940"}, {"value": 54, "lon": 45.7250715, "lat": 39.6852843, "name": "Vorotan Pass, AM (39,685, 45,725)", "locality_id": "L9157629"}, {"value": 52, "lon": 45.2424717, "lat": 40.1647399, "name": "Getap", "locality_id": "L19684453"}, {"value": 52, "lon": 44.4861649, "lat": 40.226835, "name": "\u0415\u0440\u0435\u0432\u0430\u043d, \u0415\u0440\u0435\u0432\u0430\u043d, AM (40,227, 44,486)", "locality_id": "L24285369"}, {"value": 52, "lon": 44.708015, "lat": 39.9386617, "name": "Unnamed Road, Vedi, Ararat Province, AM (39,939, 44,708)", "locality_id": "L7874665"}, {"value": 51, "lon": 44.497906, "lat": 40.192687, "name": "Sevan, AM-Armeni\u00eb", "locality_id": "L9885241"}, {"value": 51, "lon": 44.5191898, "lat": 40.1791907, "name": "Yerevan (40.179, 44.519)", "locality_id": "L31495363"}, {"value": 51, "lon": 44.2423238, "lat": 40.4071851, "name": "Amberd Road, Aragatsotn Province, AM (40.407, 44.242)", "locality_id": "L24466298"}, {"value": 50, "lon": 44.8716731, "lat": 39.9526659, "name": "Gevorg Marzpetuni Castle", "locality_id": "L23344460"}, {"value": 50, "lon": 44.9552472, "lat": 40.511411, "name": "old lagoon near m10", "locality_id": "L26530682"}, {"value": 50, "lon": 44.4342899, "lat": 40.5014673, "name": "Aparan Reservoir", "locality_id": "L19991132"}, {"value": 50, "lon": 44.242176, "lat": 40.407378, "name": "Mt Aragats Summit Road at 40.40738, 44.24218", "locality_id": "L24592758"}, {"value": 50, "lon": 44.2278, "lat": 40.406012, "name": "Mt Aragats at 40.40601, 44.22780", "locality_id": "L24593073"}, {"value": 49, "lon": 46.2761629, "lat": 38.9010279, "name": "route secondaire au nord de M17", "locality_id": "L7296013"}, {"value": 49, "lon": 44.5038685, "lat": 40.1778219, "name": "3 Mesrop Mashtots Avenue, Yerevan, Yerevan, AM (40,178, 44,504)", "locality_id": "L33543640"}, {"value": 48, "lon": 45.1911307, "lat": 39.7116716, "name": "Areni village (mudflow trap)", "locality_id": "L23934317"}, {"value": 48, "lon": 44.749957, "lat": 39.776016, "name": "(39.7760,44.7500)", "locality_id": "L7652820"}, {"value": 48, "lon": 44.500107, "lat": 40.177738, "name": "Dzoragyugh street, Yerevan AM-Armenia 40.17774, 44.50011", "locality_id": "L22544008"}, {"value": 48, "lon": 44.8139117, "lat": 39.8036133, "name": "Ararat, AM (39,804, 44,814)", "locality_id": "L31808874"}, {"value": 48, "lon": 45.3026759, "lat": 39.6705982, "name": "H40, Vayots Dzor Province, AM (39,671, 45,303)", "locality_id": "L9270706"}, {"value": 48, "lon": 44.7049785, "lat": 39.9427247, "name": "Vedi Desert", "locality_id": "L7396575"}, {"value": 48, "lon": 45.2486065, "lat": 40.0369661, "name": "M10, Gegharkunik Province, AM (40,037, 45,249)", "locality_id": "L9872455"}, {"value": 48, "lon": 43.8726993, "lat": 40.5516334, "name": "East 691, Shirak Province, AM (40,552, 43,873)", "locality_id": "L24939524"}, {"value": 48, "lon": 45.0845479, "lat": 40.4623344, "name": "AR - M10 hwy SW of Lake Sevan", "locality_id": "L8116988"}, {"value": 48, "lon": 45.6715401, "lat": 39.841855, "name": "Jermuk City Park", "locality_id": "L27685299"}, {"value": 47, "lon": 44.939176, "lat": 40.6293614, "name": "Tsovagyugh", "locality_id": "L17598980"}, {"value": 47, "lon": 45.277119, "lat": 40.46042, "name": "Auto selected 40.46042, 45.27712", "locality_id": "L35960445"}, {"value": 47, "lon": 46.314222, "lat": 39.449482, "name": "Shinuhayr-Syunik Highway AM-\u0410\u0440\u043c\u0435\u043d\u0438\u044f (39.4495,46.3142)", "locality_id": "L31841177"}, {"value": 47, "lon": 45.2532649, "lat": 40.7045988, "name": "Getik State Sanctuary", "locality_id": "L7155577"}, {"value": 46, "lon": 46.2064927, "lat": 38.8622256, "name": "Agarak", "locality_id": "L27836620"}, {"value": 46, "lon": 44.5145012, "lat": 40.1872055, "name": "Opera", "locality_id": "L31845489"}, {"value": 46, "lon": 44.2749009, "lat": 40.3071097, "name": "AR - Yerevan to Mt. Aragats", "locality_id": "L8119096"}, {"value": 46, "lon": 44.339752, "lat": 40.410708, "name": "Antarut-Nigatun Highway AM-Armenia (40.4107,44.3398)", "locality_id": "L36330197"}, {"value": 46, "lon": 44.9301679, "lat": 40.7620695, "name": "20 Parz Lich Road, Dilijan, Tavush Province, AM (40,762, 44,93)", "locality_id": "L9282318"}, {"value": 46, "lon": 44.9618053, "lat": 40.7526538, "name": "Parz Lich", "locality_id": "L19470245"}, {"value": 46, "lon": 45.205201, "lat": 39.6406493, "name": "Amaghu Valley  and  Noravank Monastery (IBA)", "locality_id": "L33461205"}, {"value": 46, "lon": 43.7894225, "lat": 41.0758897, "name": "Aghvorik", "locality_id": "L19991280"}, {"value": 45, "lon": 44.425395, "lat": 40.03543, "name": "Cemetery Lake", "locality_id": "L27512840"}, {"value": 45, "lon": 44.865846, "lat": 40.732521, "name": "Haghpat - Dilijan - Sevan, Armeni\u00eb AM-Armeni\u00eb", "locality_id": "L13408198"}, {"value": 45, "lon": 45.211622, "lat": 40.330095, "name": "Auto selected 40.33009, 45.21162", "locality_id": "L24486795"}, {"value": 45, "lon": 44.8621731, "lat": 39.9624874, "name": "Ararat Province, AM (39.962, 44.862)", "locality_id": "L32063517"}, {"value": 45, "lon": 44.799163, "lat": 39.749766, "name": "Armenia AM-Armenia (39.7498,44.7992)", "locality_id": "L24825058"}, {"value": 45, "lon": 44.910593, "lat": 40.798082, "name": "Dilijan National Park at 40.79808, 44.91059", "locality_id": "L24448029"}, {"value": 45, "lon": 45.7631893, "lat": 39.6860707, "name": "Gorayk / \u0533\u0578\u0580\u0561\u0575\u0584 (Village)", "locality_id": "L11566592"}, {"value": 45, "lon": 44.18393, "lat": 40.472834, "name": "Mt Aragats at (40.4728,44.1839)", "locality_id": "L24593026"}, {"value": 45, "lon": 45.2055909, "lat": 39.7223387, "name": "Chiva", "locality_id": "L10160367"}, {"value": 44, "lon": 44.2530741, "lat": 40.399439, "name": "Stratovolcano Aragats", "locality_id": "L33430287"}, {"value": 44, "lon": 45.2941417, "lat": 39.8452515, "name": "Shatin", "locality_id": "L16614511"}, {"value": 44, "lon": 44.254305, "lat": 40.4000017, "name": "H20, Aragatsotn Province, AM (40.4, 44.254)", "locality_id": "L33027502"}, {"value": 44, "lon": 45.1406121, "lat": 39.8541264, "name": "Mt Gndasar - Yelpin", "locality_id": "L7399985"}, {"value": 44, "lon": 44.4969895, "lat": 40.2100821, "name": "Vahram Papazian back, Yerevan, Yerevan, AM (40,21, 44,497)", "locality_id": "L18445391"}, {"value": 44, "lon": 45.4138733, "lat": 39.7054367, "name": "\u0531nanun janaparh, Vayots Dzor Province, AM (39,705, 45,414)", "locality_id": "L31662656"}, {"value": 44, "lon": 44.241671, "lat": 40.4077762, "name": "Amberd Fortaleza-Road, Aragatsotn Province, AM (40,408, 44,242)", "locality_id": "L19341674"}, {"value": 44, "lon": 45.280377, "lat": 40.170559, "name": "Gegharkunik Province (40.1706,45.2804)", "locality_id": "L37350863"}, {"value": 44, "lon": 46.4693896, "lat": 39.3151304, "name": "Woodland along Kapan - Goris road", "locality_id": "L9183293"}, {"value": 44, "lon": 45.1625492, "lat": 39.8222481, "name": "Rind - Gndasar Road", "locality_id": "L23770846"}, {"value": 44, "lon": 45.1590703, "lat": 39.835202, "name": "Mt Gndasar, Vayots Dzor Province, AM (39.835, 45.159)", "locality_id": "L24388791"}, {"value": 44, "lon": 44.8990667, "lat": 40.7504678, "name": "Dilijan, plateau over Hovsepyan St", "locality_id": "L26678103"}, {"value": 44, "lon": 44.189887, "lat": 40.4717872, "name": "Aragats", "locality_id": "L7400203"}, {"value": 43, "lon": 45.235474, "lat": 39.734231, "name": "\u0448\u043e\u0441\u0441\u0435 \u0415\u0440\u0435\u0432\u0430\u043d-\u041c\u0435\u0433\u0440\u0438 AM-\u0410\u0440\u043c\u0435\u043d\u0438\u044f (39.7342,45.2355)", "locality_id": "L31802396"}, {"value": 43, "lon": 45.0523638, "lat": 40.5009951, "name": "M10, Gegharkunik Province, AM (40,501, 45,052)", "locality_id": "L7893119"}, {"value": 43, "lon": 44.4488326, "lat": 40.2931502, "name": "Steppe to N of H6, AM (40.293, 44.449)", "locality_id": "L24459739"}, {"value": 42, "lon": 44.761586, "lat": 39.784539, "name": "Auto selected 39.78454, 44.76159", "locality_id": "L21667388"}, {"value": 42, "lon": 44.9521655, "lat": 39.7726368, "name": "Hells Canyon Refuge", "locality_id": "L7399869"}, {"value": 42, "lon": 44.7577285, "lat": 39.7833209, "name": "Armash Wetlands 003", "locality_id": "L13606635"}, {"value": 42, "lon": 45.1912624, "lat": 39.7157644, "name": "H40, Vayots Dzor Province, AM (39.716, 45.191)", "locality_id": "L32152531"}, {"value": 42, "lon": 45.1742983, "lat": 40.5661783, "name": "Nuthatchs Rock", "locality_id": "L27817320"}, {"value": 42, "lon": 44.50225, "lat": 40.16074, "name": "Komitas Pantheon, Erev\u00e1n AM-Armenia (40.1607,44.5022)", "locality_id": "L18727308"}, {"value": 42, "lon": 44.7453335, "lat": 39.7855034, "name": "Armash", "locality_id": "L33461932"}, {"value": 42, "lon": 43.8205527, "lat": 41.0446309, "name": "Mets Sepasar", "locality_id": "L19991244"}, {"value": 42, "lon": 44.90978, "lat": 40.008102, "name": "\u0425\u043e\u0441\u0440\u043e\u0432\u0441\u043a\u0438\u0439 \u0437\u0430\u043f\u043e\u0432\u0435\u0434\u043d\u0438\u043a", "locality_id": "L19623128"}, {"value": 42, "lon": 44.3961158, "lat": 40.0360384, "name": "H12, Ararat Province, AM (40,036, 44,396)", "locality_id": "L9291302"}, {"value": 42, "lon": 44.6480129, "lat": 40.645117, "name": "Sevani Mts and Meghradzor Reserve", "locality_id": "L8842687"}, {"value": 41, "lon": 45.1849432, "lat": 39.7223549, "name": "Areni, Vajoc Dzor tartom\u00e1ny, AM (39,722, 45,185)", "locality_id": "L31217348"}, {"value": 41, "lon": 44.8975006, "lat": 39.7906417, "name": "Oorts Mountains (General area - please use more specific location if possible)", "locality_id": "L17107295"}, {"value": 41, "lon": 44.8521781, "lat": 39.7714832, "name": "Mt. Oorst", "locality_id": "L7399773"}, {"value": 41, "lon": 44.8733568, "lat": 39.9516857, "name": "Upper Vedi Gorge", "locality_id": "L4811940"}, {"value": 41, "lon": 44.5175991, "lat": 40.8029862, "name": "86\u0430 Aghayan Street, Vanadzor, Lori Province, AM (40,803, 44,518)", "locality_id": "L30091260"}, {"value": 40, "lon": 44.2515006, "lat": 40.4056829, "name": "H20, Mt Apagas, Aragatsotn Province, AM (40,406, 44,252)", "locality_id": "L19341631"}, {"value": 40, "lon": 44.7437901, "lat": 40.1272368, "name": "Garni, Kotayk Province, AM (40.127, 44.744)", "locality_id": "L33744940"}, {"value": 40, "lon": 45.246021, "lat": 40.1688132, "name": "M10, Lichk, Gegharkunik Province, AM (40,169, 45,246)", "locality_id": "L7889378"}, {"value": 40, "lon": 44.2662692, "lat": 40.3770723, "name": "H20, Aragatsotn Province, AM (40.377, 44.266)", "locality_id": "L24466192"}, {"value": 40, "lon": 44.266775, "lat": 40.358821, "name": "Auto selected 40.35882, 44.26678", "locality_id": "L31548123"}, {"value": 40, "lon": 44.2943097, "lat": 41.0749343, "name": "Unnamed Road, Saratovka, Lori Province, AM (41,075, 44,294)", "locality_id": "L9882079"}, {"value": 40, "lon": 44.9188248, "lat": 40.7848228, "name": "AR - Haghartsin Road near Teghut", "locality_id": "L8116919"}, {"value": 40, "lon": 44.777024, "lat": 39.777488, "name": "AM-Armenia (39.7775,44.7770)", "locality_id": "L7647663"}, {"value": 39, "lon": 45.2771065, "lat": 40.165304, "name": "\u0531nanun janaparh, Gegharkunik Province, AM (40.165, 45.277)", "locality_id": "L23655186"}, {"value": 38, "lon": 44.472207, "lat": 40.158026, "name": "Auto selected 40.15803, 44.47221", "locality_id": "L21274571"}, {"value": 38, "lon": 44.5537234, "lat": 40.6183126, "name": "Kotayk", "locality_id": "L33440450"}, {"value": 38, "lon": 46.3453725, "lat": 38.9337092, "name": "Alvank", "locality_id": "L9168942"}, {"value": 38, "lon": 45.33844, "lat": 40.4850183, "name": "Lake Artanish", "locality_id": "L27817629"}, {"value": 38, "lon": 44.9324787, "lat": 39.8608628, "name": "Vosketap-Vedi-Urtsadzor-Lanjar Highway, Ararat Province, AM (39,861, 44,932)", "locality_id": "L9867631"}, {"value": 38, "lon": 44.3107253, "lat": 40.2635102, "name": "Oshakan", "locality_id": "L31677600"}, {"value": 38, "lon": 44.8418969, "lat": 41.2329491, "name": "Bagratashen Border Crossing", "locality_id": "L24600943"}, {"value": 38, "lon": 45.4730344, "lat": 40.4116085, "name": "Tsapatagh village", "locality_id": "L26432817"}, {"value": 37, "lon": 44.5049822, "lat": 40.8180797, "name": "Lori Province, AM (40.818, 44.505)", "locality_id": "L23927449"}, {"value": 37, "lon": 44.6300481, "lat": 40.4267414, "name": "Alapars", "locality_id": "L18380498"}, {"value": 37, "lon": 46.0290204, "lat": 39.5513813, "name": "Karahunj", "locality_id": "L9157691"}, {"value": 37, "lon": 44.244407, "lat": 40.4187503, "name": "H20, Aragatsotn Province, AM (40.419, 44.244)", "locality_id": "L31981965"}, {"value": 37, "lon": 44.8366658, "lat": 39.9279483, "name": "\u0531nanun janaparh, Urtsadzor, Ararat Province, AM (39.928, 44.837)", "locality_id": "L32056569"}, {"value": 37, "lon": 44.5214, "lat": 40.8046183, "name": "Bazum Hospital", "locality_id": "L31872725"}, {"value": 37, "lon": 44.4024539, "lat": 40.0468777, "name": "Masis fish ponds", "locality_id": "L22443208"}, {"value": 37, "lon": 45.4436867, "lat": 40.4533516, "name": "Sevani Mts", "locality_id": "L8842733"}, {"value": 37, "lon": 45.249329, "lat": 40.180202, "name": "AM-Armenia (40.1802,45.2493)", "locality_id": "L7594850"}, {"value": 37, "lon": 46.340244, "lat": 39.491522, "name": "Goris- Thatev, Armeni\u00eb", "locality_id": "L13408389"}, {"value": 37, "lon": 45.1904317, "lat": 39.7144367, "name": "H40, Vayots Dzor Province, AM (39,714, 45,19)", "locality_id": "L7878106"}, {"value": 36, "lon": 45.0037389, "lat": 40.5115694, "name": "Noyland resort", "locality_id": "L7877460"}, {"value": 36, "lon": 45.214929, "lat": 39.692883, "name": "Auto selected 39.69288, 45.21493", "locality_id": "L25281923"}, {"value": 36, "lon": 43.7860405, "lat": 40.9532323, "name": "Amasia, Shirak Province, AM (40.953, 43.786)", "locality_id": "L34652930"}, {"value": 36, "lon": 44.8542509, "lat": 39.890176, "name": "Urts mountain", "locality_id": "L37479559"}, {"value": 36, "lon": 45.0432167, "lat": 40.5129483, "name": "Norashen Reserve, AM (40,513, 45,043)", "locality_id": "L27472147"}, {"value": 36, "lon": 45.2296167, "lat": 39.7349239, "name": "Road between Arpi and Areni", "locality_id": "L9183401"}, {"value": 36, "lon": 44.9163405, "lat": 40.7881793, "name": "Haghartsin Road, Teghut, Tavush Province, AM (40,788, 44,916)", "locality_id": "L9282507"}, {"value": 36, "lon": 46.3388729, "lat": 39.5121605, "name": "Goris Town", "locality_id": "L11566645"}, {"value": 36, "lon": 46.2609609, "lat": 38.8959047, "name": "Ikizor Gorge and Border Road", "locality_id": "L27836890"}, {"value": 36, "lon": 44.8122453, "lat": 39.7623997, "name": "Armash Fish Ponds", "locality_id": "L9545886"}, {"value": 36, "lon": 45.148022, "lat": 40.5670615, "name": "Zhayr Resort, \u0414\u0440\u0430\u0445\u0442\u0438\u043a, \u0413\u0435\u0433\u0430\u0440\u043a\u0443\u043d\u0438\u043a, AM (40,567, 45,148)", "locality_id": "L35631863"}, {"value": 36, "lon": 44.765188, "lat": 40.134008, "name": "\u0428\u043e\u0441\u0441\u0435 \u0413\u0435\u0433\u0430\u0440\u0434 AM-\u0410\u0440\u043c\u0435\u043d\u0438\u044f (40.1340,44.7652)", "locality_id": "L32159573"}, {"value": 36, "lon": 44.7065938, "lat": 39.9522419, "name": "Ararat, AM (39,952, 44,707)", "locality_id": "L9249110"}, {"value": 36, "lon": 45.234303, "lat": 39.949141, "name": "M-10 (39.94914, 45.23430)", "locality_id": "L23982118"}, {"value": 36, "lon": 44.316342, "lat": 40.300804, "name": "Auto selected 40.30080, 44.31634 Byurakan", "locality_id": "L31545908"}, {"value": 36, "lon": 44.4998092, "lat": 40.8025749, "name": "Vanadzor 3 Lakes", "locality_id": "L26873944"}, {"value": 36, "lon": 45.2798995, "lat": 40.4882021, "name": "Shoghakat, Gegharkunik Province, AM (40.488, 45.28)", "locality_id": "L36537211"}, {"value": 36, "lon": 44.9547177, "lat": 40.6080836, "name": "M4, Gegharkunik Province, AM (40.608, 44.955)", "locality_id": "L32102592"}, {"value": 35, "lon": 44.3045183, "lat": 41.08383, "name": "Unnamed Road, Saratovka, Lori Province, AM (41,084, 44,305)", "locality_id": "L7896063"}, {"value": 35, "lon": 45.2274207, "lat": 40.0137111, "name": "Gegharkunik", "locality_id": "L35524338"}, {"value": 35, "lon": 44.579132, "lat": 40.610442, "name": "(40.6104,44.5791)", "locality_id": "L7578840"}, {"value": 35, "lon": 44.240738, "lat": 40.423585, "name": "Auto selected 40.42359, 44.24074", "locality_id": "L24592815"}, {"value": 35, "lon": 44.81948, "lat": 40.140005, "name": "\u0413\u0435\u0445\u0430\u0440\u0434", "locality_id": "L19761606"}, {"value": 35, "lon": 45.1708043, "lat": 39.8509039, "name": "My Gndasar, Vayots Dzor Province, AM (39.851, 45.171)", "locality_id": "L24388741"}, {"value": 35, "lon": 44.5485791, "lat": 40.609673, "name": "Tsaghkunyats - Artavaz", "locality_id": "L19095121"}, {"value": 35, "lon": 45.183439, "lat": 39.720808, "name": "Auto selected 39.72081, 45.18344", "locality_id": "L24494755"}, {"value": 35, "lon": 44.7414207, "lat": 40.1158371, "name": "\u0421\u0438\u043c\u0444\u043e\u043d\u0438\u044f \u043a\u0430\u043c\u043d\u0435\u0439", "locality_id": "L28446982"}, {"value": 35, "lon": 44.7229385, "lat": 40.1079469, "name": "Garni, Azat Gorge and Geghard Monastery", "locality_id": "L8842698"}, {"value": 35, "lon": 45.4703855, "lat": 40.4114071, "name": "M14, Gegharkunik Province, AM (40,411, 45,47)", "locality_id": "L32140763"}, {"value": 34, "lon": 44.6154081, "lat": 40.1775189, "name": "Jrvezh Park", "locality_id": "L31662993"}, {"value": 34, "lon": 46.3962601, "lat": 39.2046199, "name": "Kapan", "locality_id": "L27605108"}, {"value": 34, "lon": 44.8910809, "lat": 40.8017256, "name": "Haghartsin Monestary", "locality_id": "L9157188"}, {"value": 34, "lon": 45.1780501, "lat": 39.7355818, "name": "Areni", "locality_id": "L18545806"}, {"value": 34, "lon": 45.2513083, "lat": 40.175285, "name": "Lichk Reserve, AM (40,175, 45,251)", "locality_id": "L27472175"}, {"value": 34, "lon": 45.1401319, "lat": 39.7661769, "name": "Chiva", "locality_id": "L10160583"}, {"value": 34, "lon": 43.7155467, "lat": 41.0761517, "name": "Ardenis, Shirak Province, AM (41.076, 43.716)", "locality_id": "L36535357"}, {"value": 34, "lon": 45.361293, "lat": 40.4852664, "name": "Armenian Camp", "locality_id": "L24075448"}, {"value": 34, "lon": 44.7786431, "lat": 39.7546609, "name": "Armash", "locality_id": "L33461702"}, {"value": 34, "lon": 46.2440897, "lat": 38.8758348, "name": "M2 between Meghri and Agarak", "locality_id": "L9160905"}, {"value": 34, "lon": 44.927453, "lat": 39.929098, "name": "Hike up the mountain from CWR", "locality_id": "L7688082"}, {"value": 34, "lon": 46.2734613, "lat": 39.0669157, "name": "Mount Kaler - Geslecor Valley", "locality_id": "L27837099"}, {"value": 34, "lon": 45.1078892, "lat": 40.4327716, "name": "Hayravank", "locality_id": "L18962809"}, {"value": 34, "lon": 45.428, "lat": 39.713, "name": "Road to Zedea", "locality_id": "L18981888"}, {"value": 34, "lon": 44.594104, "lat": 40.7701596, "name": "M8, Lori Province, AM (40,77, 44,594)", "locality_id": "L7895790"}, {"value": 34, "lon": 44.454632, "lat": 40.293334, "name": "Aragatsotn", "locality_id": "L33433568"}, {"value": 34, "lon": 45.2021316, "lat": 39.6409962, "name": "Amaghu Valley  and  Noravank Monastery (IBA)", "locality_id": "L33461160"}, {"value": 33, "lon": 44.4820145, "lat": 40.1886483, "name": "Sport and Concert Complex", "locality_id": "L20139904"}, {"value": 33, "lon": 44.498049, "lat": 40.192758, "name": "Hovtashen, AM-Armeni\u00eb", "locality_id": "L9880013"}, {"value": 33, "lon": 43.7162233, "lat": 41.0760917, "name": "Unnamed Road, Ardenis, Shirak Province, AM (41,076, 43,716)", "locality_id": "L7901238"}, {"value": 33, "lon": 45.03954, "lat": 40.50226, "name": "Norashen Reserve, Lake Sevan", "locality_id": "L22205468"}, {"value": 33, "lon": 45.197315, "lat": 39.8598117, "name": "Hors Conservation Area, Vajoc Dzor, AM (39,86, 45,197)", "locality_id": "L19073022"}, {"value": 33, "lon": 45.2435668, "lat": 40.0315033, "name": "M10, Gegharkunik Province, AM (40,032, 45,244)", "locality_id": "L9276584"}, {"value": 33, "lon": 45.4063807, "lat": 39.8720025, "name": "\u0531nanun janaparh, Vayots Dzor Province, AM (39,872, 45,406)", "locality_id": "L22816930"}, {"value": 33, "lon": 44.949882, "lat": 39.89826, "name": "\u0410\u0440\u043c\u0435\u043d\u0438\u044f AM-\u0410\u0440\u043c\u0435\u043d\u0438\u044f (39.8983,44.9499)", "locality_id": "L24332595"}, {"value": 32, "lon": 44.6744449, "lat": 40.07278, "name": "Yeranos Mountain, AM (40.073, 44.674)", "locality_id": "L34275927"}, {"value": 32, "lon": 44.9570896, "lat": 40.5119899, "name": "Chkalovka", "locality_id": "L16614361"}, {"value": 32, "lon": 46.3162309, "lat": 39.4372072, "name": "Shinuhayr Village", "locality_id": "L12049349"}, {"value": 32, "lon": 44.791224, "lat": 39.753353, "name": "Armenia AM-Armenia (39.7534,44.7912)", "locality_id": "L29787327"}, {"value": 32, "lon": 45.4729057, "lat": 39.6888275, "name": "Vayk", "locality_id": "L9184343"}, {"value": 32, "lon": 44.4817218, "lat": 40.80024, "name": "Pump Track Vanadzor, Lori Province, AM (40,8, 44,482)", "locality_id": "L27913390"}, {"value": 32, "lon": 45.248624, "lat": 40.0370085, "name": "M10, Gegharkunik Province, AM (40,037, 45,249)", "locality_id": "L7888722"}, {"value": 32, "lon": 45.557155, "lat": 39.682445, "name": "(39,682, 45,557)", "locality_id": "L7880552"}, {"value": 32, "lon": 44.2607223, "lat": 40.3334852, "name": "Amberd Gorge", "locality_id": "L31997682"}, {"value": 32, "lon": 44.85519, "lat": 40.7373867, "name": "1 Getapnya Street, Dilijan, Tavush Province, AM (40.737, 44.855)", "locality_id": "L19229338"}, {"value": 32, "lon": 44.0813786, "lat": 40.3037106, "name": "East 691, Aragatsotn Province, AM (40,304, 44,081)", "locality_id": "L24939853"}, {"value": 31, "lon": 44.978256, "lat": 40.584448, "name": "Auto selected 40.58445, 44.97826", "locality_id": "L25339845"}, {"value": 31, "lon": 46.2642002, "lat": 38.8917009, "name": "\u00c9tang pr\u00e8s de l'Araxe", "locality_id": "L7313930"}, {"value": 31, "lon": 44.5744543, "lat": 39.8818572, "name": "Ararat, AM (39,882, 44,574)", "locality_id": "L9895114"}, {"value": 31, "lon": 44.476086, "lat": 40.15847, "name": "Yerevanyan Lake", "locality_id": "L21170781"}, {"value": 31, "lon": 44.9540201, "lat": 40.512956, "name": "M10, Lchashen, Gegharkunik Province, AM (40,513, 44,954)", "locality_id": "L18758245"}, {"value": 31, "lon": 44.71582, "lat": 39.93137, "name": "Vedi Gorge", "locality_id": "L22205491"}, {"value": 31, "lon": 44.773712, "lat": 39.789487, "name": "Armash Ponds entry road and fields", "locality_id": "L18856961"}, {"value": 31, "lon": 44.7122288, "lat": 39.9380854, "name": "Vedi gorge", "locality_id": "L11561510"}, {"value": 31, "lon": 44.5196486, "lat": 40.183398, "name": "Yerevan", "locality_id": "L9514898"}, {"value": 31, "lon": 44.4934813, "lat": 40.8100714, "name": "2 Taterakan Street, Vanadzor, Lori Province, AM (40,81, 44,493)", "locality_id": "L18414640"}, {"value": 31, "lon": 44.4833304, "lat": 40.8009851, "name": "57 Garegin Nzhdeh Street, Vanadzor, Lori Province, AM (40,801, 44,483)", "locality_id": "L18547191"}, {"value": 30, "lon": 44.266511, "lat": 40.38455, "name": "Auto selected 40.38455, 44.26651", "locality_id": "L25235184"}, {"value": 30, "lon": 46.4321033, "lat": 39.500155, "name": "Khnzoresk Caves", "locality_id": "L31555250"}, {"value": 30, "lon": 45.137741, "lat": 39.809443, "name": "Mount Gndasar\u20145450\u2019", "locality_id": "L23966829"}, {"value": 30, "lon": 44.392004, "lat": 40.3432951, "name": "Debed Gorge at Ohanavan", "locality_id": "L6295259"}, {"value": 30, "lon": 44.483184, "lat": 40.161952, "name": "Lake Yerevan", "locality_id": "L20926227"}, {"value": 30, "lon": 43.7548669, "lat": 40.6677395, "name": "H21, Shirak Province, AM (40,668, 43,755)", "locality_id": "L9882718"}, {"value": 30, "lon": 46.2537037, "lat": 39.3878984, "name": "Unnamed Road, Syunik Province, AM (39,388, 46,254)", "locality_id": "L9265353"}, {"value": 30, "lon": 44.6660945, "lat": 41.0873322, "name": "Sanahin Monastery, \u0410\u043b\u0430\u0432\u0435\u0440\u0434\u0438, \u041b\u043e\u0440\u0438, AM (41,087, 44,666)", "locality_id": "L31553490"}, {"value": 30, "lon": 44.9739252, "lat": 39.8429671, "name": "Vosketap-Vedi-Urtsadzor-Lanjar Highway, Ararat Province, AM (39.843, 44.974)", "locality_id": "L31759378"}, {"value": 30, "lon": 44.286952, "lat": 40.307215, "name": "T-1-78 (40.30721, 44.28695)", "locality_id": "L23975945"}, {"value": 30, "lon": 45.1312697, "lat": 40.3530637, "name": "Gavar, Gegharkunik Province, AM (40.353, 45.131)", "locality_id": "L32791397"}, {"value": 30, "lon": 45.2307191, "lat": 39.6764377, "name": "\u0412\u0430\u0439\u043e\u0446 \u0414\u0437\u043e\u0440, AM (39,676, 45,231)", "locality_id": "L22819076"}, {"value": 30, "lon": 44.8179481, "lat": 40.1395476, "name": "Geghard Monastery Road, Goght, Ararat Province, AM (40,14, 44,818)", "locality_id": "L7877336"}, {"value": 30, "lon": 44.6513662, "lat": 41.0017658, "name": "\u0531nanun janaparh, Tumanyan, Lori Province, AM (41.002, 44.651)", "locality_id": "L36195207"}, {"value": 30, "lon": 44.7521066, "lat": 39.7865134, "name": "Armash Wetlands 13 Ararat Province, AM (39.787, 44.752)", "locality_id": "L31549213"}, {"value": 30, "lon": 43.7389416, "lat": 41.0060707, "name": "en route from Lake Arpi to Amasia", "locality_id": "L19991487"}, {"value": 30, "lon": 44.4797158, "lat": 40.194102, "name": "Tumanyan Park", "locality_id": "L31553925"}, {"value": 30, "lon": 45.1675631, "lat": 39.8417028, "name": "(39,842, 45,168)", "locality_id": "L7884535"}, {"value": 29, "lon": 46.2733188, "lat": 38.9040363, "name": "Meghri", "locality_id": "L10160442"}, {"value": 29, "lon": 44.457537, "lat": 40.292977, "name": "Yeghvard 40.29298, 44.45754", "locality_id": "L24635799"}, {"value": 29, "lon": 44.674724, "lat": 40.723894, "name": "Auto selected 40.72389, 44.67472", "locality_id": "L16397286"}, {"value": 29, "lon": 44.8995627, "lat": 40.7510715, "name": "24 Hovsepyan Street, Dilijan, Tavush Province, AM (40,751, 44,9)", "locality_id": "L25723061"}, {"value": 29, "lon": 43.9639467, "lat": 40.7741617, "name": "\u0432\u0434\u0445\u0440. \u041a\u0430\u0440\u043d\u0443\u0442", "locality_id": "L27145834"}, {"value": 29, "lon": 44.6527464, "lat": 40.6981938, "name": "Margahovit Pass", "locality_id": "L9978777"}, {"value": 29, "lon": 43.825174, "lat": 40.7816108, "name": "Black Fortress and Mother Armenia, Gyumri (40,782, 43,825)", "locality_id": "L30882948"}, {"value": 29, "lon": 44.531379, "lat": 40.7972997, "name": "Griboedovi Street, Vanadzor, Lori Province, AM (40,797, 44,531)", "locality_id": "L35086992"}, {"value": 29, "lon": 44.2617273, "lat": 40.3565192, "name": "Pied du mont Aragats", "locality_id": "L7286077"}, {"value": 29, "lon": 44.7230513, "lat": 40.109418, "name": "Garni", "locality_id": "L8124732"}, {"value": 29, "lon": 44.7297225, "lat": 40.1142948, "name": "8 Marzpetuni Street, Garni, Kotayk Province, AM (40,114, 44,73)", "locality_id": "L7872078"}, {"value": 29, "lon": 45.288806, "lat": 39.698096, "name": "Gladzor area", "locality_id": "L35159829"}, {"value": 29, "lon": 45.24973, "lat": 40.504565, "name": "Wishup Shore", "locality_id": "L26385561"}, {"value": 29, "lon": 44.2040223, "lat": 40.4510499, "name": "(40,451, 44,204)", "locality_id": "L9310290"}, {"value": 28, "lon": 44.880225, "lat": 40.7603683, "name": "Waterfall Trail, Dilijan, \u0422\u0430\u0432\u0443\u0448, AM (40,76, 44,88)", "locality_id": "L28087720"}, {"value": 28, "lon": 44.751502, "lat": 39.9209647, "name": "Dashtakar, Ararat Province, AM (39,921, 44,752)", "locality_id": "L24981122"}, {"value": 28, "lon": 44.9521287, "lat": 40.6184919, "name": "M4, Gegharkunik Province, AM (40,618, 44,952)", "locality_id": "L31590272"}, {"value": 28, "lon": 44.482192, "lat": 40.1669226, "name": "Dalma Park, \u0415\u0440\u0435\u0432\u0430\u043d, AM (40,167, 44,482)", "locality_id": "L32046262"}, {"value": 28, "lon": 44.6953638, "lat": 39.9496796, "name": "(39,95, 44,695)", "locality_id": "L9249478"}, {"value": 28, "lon": 44.8034135, "lat": 40.1462622, "name": "Geghard, Kotayk Province, AM (40.146, 44.803)", "locality_id": "L33728975"}, {"value": 28, "lon": 44.6689973, "lat": 40.9706525, "name": "Lori Province, AM (40.971, 44.669)", "locality_id": "L36254666"}, {"value": 28, "lon": 45.040469, "lat": 40.50575, "name": "Lake Sevan", "locality_id": "L33433572"}, {"value": 28, "lon": 44.2952794, "lat": 40.3037781, "name": "Agarak", "locality_id": "L19361244"}, {"value": 28, "lon": 44.6188284, "lat": 41.0170151, "name": "Surb Hovhannes", "locality_id": "L19990997"}, {"value": 28, "lon": 44.25145, "lat": 40.407887, "name": "Auto selected 40.40789, 44.25145", "locality_id": "L31552949"}, {"value": 28, "lon": 44.890992, "lat": 40.802415, "name": "Hagartsin", "locality_id": "L19698710"}, {"value": 28, "lon": 44.9647033, "lat": 39.864695, "name": "Vosketap-Vedi-Urtsadzor-Lanjar Highway, Lanjanist, Ararat Province, AM (39.865, 44.965)", "locality_id": "L19291546"}, {"value": 28, "lon": 44.162803, "lat": 40.214468, "name": "(40.2145,44.1628)", "locality_id": "L7406119"}, {"value": 28, "lon": 45.318935, "lat": 40.503402, "name": "Auto selected 40.50340, 45.31894", "locality_id": "L35960436"}, {"value": 28, "lon": 44.7286918, "lat": 40.4620365, "name": "Armenia - M4 to Lake Sevan", "locality_id": "L9978631"}, {"value": 27, "lon": 44.4949833, "lat": 40.2124667, "name": "Hrazdan Riverbank Road, Yerevan, Yerevan, AM (40,212, 44,495)", "locality_id": "L38262161"}, {"value": 27, "lon": 45.4317649, "lat": 39.8803525, "name": "Hermon, Vayots Dzor Province, AM (39.88, 45.432)", "locality_id": "L31842536"}, {"value": 27, "lon": 45.1406167, "lat": 39.7671612, "name": "Chiva", "locality_id": "L26466708"}, {"value": 27, "lon": 45.1717983, "lat": 39.8390442, "name": "Vayots Dzor, AM (39,839, 45,172)", "locality_id": "L35496898"}, {"value": 27, "lon": 45.2164617, "lat": 39.6812133, "name": "Amaghu, Arpa Protected Landscape, Vayots Dzor Province, AM (39,681, 45,216)", "locality_id": "L27744360"}, {"value": 27, "lon": 44.3804312, "lat": 40.4085783, "name": "Armenian alphabet", "locality_id": "L22363604"}, {"value": 27, "lon": 44.27273, "lat": 40.3658398, "name": "Amberd Hotel", "locality_id": "L26516022"}, {"value": 27, "lon": 45.1912438, "lat": 39.7160513, "name": "H40, Vayots Dzor Province, AM (39.716, 45.191)", "locality_id": "L26317115"}, {"value": 27, "lon": 45.1717224, "lat": 39.8391083, "name": "Mt Gndasar, Vayots Dzor Province, AM (39.839, 45.172)", "locality_id": "L24388680"}, {"value": 27, "lon": 44.2488698, "lat": 40.396553, "name": "Mt Aragats Summit Road, Aragatsotn Province, AM (40.397, 44.249)", "locality_id": "L24466273"}, {"value": 27, "lon": 44.2467752, "lat": 40.4144423, "name": "H20, Aragatsotn Province, AM (40,414, 44,247)", "locality_id": "L35549298"}, {"value": 27, "lon": 44.767798, "lat": 39.787744, "name": "Auto selected 39.78774, 44.76780", "locality_id": "L37684544"}, {"value": 27, "lon": 45.3325939, "lat": 39.7639906, "name": "Yeghegnadzor", "locality_id": "L9157866"}, {"value": 27, "lon": 44.743649, "lat": 40.117118, "name": "Auto selected 40.11712, 44.74365", "locality_id": "L25209406"}, {"value": 27, "lon": 44.7129682, "lat": 39.9346689, "name": "Ararat Province, AM (39,935, 44,713)", "locality_id": "L31140226"}, {"value": 27, "lon": 44.5069134, "lat": 40.191336, "name": "Lovers' Park / \u054d\u056b\u0580\u0561\u0570\u0561\u0580\u0576\u0565\u0580\u056b \u0561\u0575\u0563\u056b", "locality_id": "L23208815"}, {"value": 27, "lon": 44.493675, "lat": 40.800901, "name": "Gugarak Temi", "locality_id": "L31797080"}, {"value": 27, "lon": 45.2342234, "lat": 39.9493733, "name": "Vardenyats Pass, Gegharkunik Province, AM (39,949, 45,234)", "locality_id": "L7888564"}, {"value": 27, "lon": 45.843827, "lat": 39.668159, "name": "\u0448\u043e\u0441\u0441\u0435 \u0415\u0440\u0435\u0432\u0430\u043d-\u041c\u0435\u0433\u0440\u0438 AM-\u0410\u0440\u043c\u0435\u043d\u0438\u044f (39.6682,45.8438)", "locality_id": "L31801933"}, {"value": 26, "lon": 45.432058, "lat": 39.88034, "name": "Auto selected 39.88034, 45.43206", "locality_id": "L25277110"}, {"value": 26, "lon": 46.035431, "lat": 39.498025, "name": "Tolors Reservoir 39.49803, 46.03543", "locality_id": "L37287711"}, {"value": 26, "lon": 44.5089689, "lat": 40.2085634, "name": "5/1 Vratsakan 4th bck. 2, Yerevan, Yerevan, AM (40.209, 44.509)", "locality_id": "L33068787"}, {"value": 26, "lon": 44.4819188, "lat": 40.2331305, "name": "\u0531nanun janaparh, Yerevan, AM (40,233, 44,482)", "locality_id": "L23748869"}, {"value": 26, "lon": 44.9560027, "lat": 40.5336338, "name": "sevan", "locality_id": "L13816496"}, {"value": 26, "lon": 44.811859, "lat": 39.778071, "name": "Ararat", "locality_id": "L33433580"}, {"value": 26, "lon": 44.9625217, "lat": 40.8198033, "name": "Dimats Waterfall", "locality_id": "L30750663"}, {"value": 26, "lon": 45.12198, "lat": 40.582442, "name": "Auto selected 40.58244, 45.12198", "locality_id": "L26744603"}, {"value": 26, "lon": 46.3951004, "lat": 39.4570939, "name": "4 cze 2022 09:0739,457, 46,395", "locality_id": "L19469351"}, {"value": 26, "lon": 44.437471, "lat": 40.9277026, "name": "Gyulagarak State Sanctuary", "locality_id": "L7155606"}, {"value": 26, "lon": 46.0361918, "lat": 39.5558611, "name": "Zorats Karer", "locality_id": "L7724821"}, {"value": 26, "lon": 45.2439741, "lat": 39.976753, "name": "Selim Pass: settlement and cultivated fields East of road", "locality_id": "L24197508"}, {"value": 26, "lon": 44.329723, "lat": 40.162351, "name": "Ararat - Yerevan, Armeni\u00eb", "locality_id": "L13408510"}, {"value": 26, "lon": 44.7464611, "lat": 39.7784133, "name": "Ararat, AM (39,778, 44,746)", "locality_id": "L35432218"}, {"value": 26, "lon": 44.788847, "lat": 39.762579, "name": "Auto selected 39.76258, 44.78885", "locality_id": "L37684516"}, {"value": 25, "lon": 44.5251832, "lat": 40.1769626, "name": "Aygestan 3rd Street", "locality_id": "L10520574"}, {"value": 25, "lon": 45.4260668, "lat": 39.70896, "name": "Zedea Road", "locality_id": "L20473632"}, {"value": 25, "lon": 44.7736763, "lat": 39.7895106, "name": "Entrance Road to Armash Fishponds", "locality_id": "L18840247"}, {"value": 25, "lon": 46.3363, "lat": 39.4369417, "name": "Old Khot", "locality_id": "L31550272"}, {"value": 25, "lon": 44.966509, "lat": 40.621952, "name": "Auto selected 40.62195, 44.96651", "locality_id": "L24486636"}, {"value": 25, "lon": 45.4704758, "lat": 40.4113926, "name": "Avan Tsapatakh, Tsapatakh, Gegharkunik Province, AM (40,411, 45,47)", "locality_id": "L36554920"}, {"value": 25, "lon": 44.506705, "lat": 40.191305, "name": "Lovers Park, Yerevan AM-Armenia (40.1913,44.5067)", "locality_id": "L18158734"}, {"value": 25, "lon": 45.6686164, "lat": 39.8362771, "name": "Jermuk Waterfall", "locality_id": "L25631856"}, {"value": 25, "lon": 45.236422, "lat": 39.949396, "name": "Auto selected 39.94940, 45.23642", "locality_id": "L24486816"}, {"value": 25, "lon": 44.9108654, "lat": 40.798134, "name": "Old Mill", "locality_id": "L24195345"}, {"value": 25, "lon": 44.6083392, "lat": 39.8479559, "name": "H11, Yeghegnavan, Ararat Province, AM (39,848, 44,608)", "locality_id": "L24362066"}, {"value": 25, "lon": 45.5573672, "lat": 39.6933144, "name": "(39,693, 45,557)", "locality_id": "L9863002"}, {"value": 25, "lon": 44.997195, "lat": 40.7300283, "name": "Gosh, Tavush, AM (40,73, 44,997)", "locality_id": "L27472070"}, {"value": 25, "lon": 44.4793618, "lat": 40.1918482, "name": "TUMO Park", "locality_id": "L21623904"}, {"value": 25, "lon": 44.8914, "lat": 40.6533517, "name": "Dilijan Tonnel", "locality_id": "L27507019"}, {"value": 25, "lon": 44.5225473, "lat": 40.175777, "name": "Circular Park", "locality_id": "L25202477"}, {"value": 25, "lon": 44.813505, "lat": 39.83132, "name": "Armenia AM-Armenia (39.8313,44.8135)", "locality_id": "L29787502"}, {"value": 25, "lon": 45.015685, "lat": 39.8165467, "name": "Hells Canyon, Ararat Province, AM (39,817, 45,016)", "locality_id": "L27473113"}, {"value": 25, "lon": 44.2486157, "lat": 40.3969773, "name": "H20, Aragatsotn Province, AM (40,397, 44,249)", "locality_id": "L9248185"}, {"value": 24, "lon": 44.207313, "lat": 40.4486567, "name": "H20, Aragatsotn Province, AM (40.449, 44.207)", "locality_id": "L31981953"}, {"value": 24, "lon": 44.94465, "lat": 40.525411, "name": "Auto selected 40.52541, 44.94465", "locality_id": "L37618680"}, {"value": 24, "lon": 45.362502, "lat": 39.869405, "name": "Auto selected 39.86941, 45.36250", "locality_id": "L25314189"}, {"value": 24, "lon": 44.4484612, "lat": 40.292169, "name": "H6, AM (40,292, 44,448)", "locality_id": "L24940114"}, {"value": 24, "lon": 45.4261765, "lat": 39.7094578, "name": "Carretera, Vayots Dzor Province, AM (39,709, 45,426)", "locality_id": "L19341462"}, {"value": 24, "lon": 44.9566126, "lat": 40.5115392, "name": "Sevan Lake - Lchashen", "locality_id": "L7395830"}, {"value": 24, "lon": 44.763579, "lat": 39.780155, "name": "Armash fish-farm (IBA)", "locality_id": "L33433581"}, {"value": 24, "lon": 44.2702306, "lat": 40.367325, "name": "Aragats", "locality_id": "L7877501"}, {"value": 24, "lon": 44.522837, "lat": 40.1759632, "name": "Circular Park", "locality_id": "L31544267"}, {"value": 24, "lon": 44.515689, "lat": 40.192705, "name": "(40.1927,44.5157)", "locality_id": "L7406127"}, {"value": 24, "lon": 45.1718298, "lat": 39.8391158, "name": "Vayots' Dzor, AM (39,839, 45,172)", "locality_id": "L9276309"}, {"value": 24, "lon": 43.9259431, "lat": 40.3813471, "name": "Katnaghbyur", "locality_id": "L19991563"}, {"value": 24, "lon": 44.5035624, "lat": 40.2161488, "name": "Hrazdan hydroelectric power plant", "locality_id": "L25233635"}, {"value": 24, "lon": 45.242548, "lat": 40.0418, "name": "(40.0418,45.2425)", "locality_id": "L7574106"}, {"value": 24, "lon": 44.506435, "lat": 40.807675, "name": "49 Nizami Street, Vanadzor, Lori Province, AM (40,808, 44,506)", "locality_id": "L32494321"}, {"value": 24, "lon": 44.8648202, "lat": 40.7390851, "name": "Dilidzjan, Tavoesj, AM (40,739, 44,865)", "locality_id": "L31590179"}, {"value": 24, "lon": 44.765411, "lat": 39.773796, "name": "Armash", "locality_id": "L38020586"}, {"value": 24, "lon": 45.2463154, "lat": 40.168529, "name": "Lake Sevan (IBA)", "locality_id": "L33460327"}, {"value": 24, "lon": 45.1048931, "lat": 40.4307509, "name": "Near Hayravank Moneastery", "locality_id": "L20472681"}, {"value": 24, "lon": 44.4133082, "lat": 40.1638988, "name": "M5, Parakar, Armavir Province, AM (40,164, 44,413)", "locality_id": "L9248148"}, {"value": 24, "lon": 44.7304608, "lat": 40.1140923, "name": "8 Marzpetuni Street, Garni, Kotayk Province, AM (40,114, 44,73)", "locality_id": "L9289014"}, {"value": 24, "lon": 44.8540962, "lat": 40.7376613, "name": "Dilijan City Park", "locality_id": "L25104876"}, {"value": 24, "lon": 44.2481883, "lat": 40.4144717, "name": "H20, Aragatsotn Province, AM (40.414, 44.248)", "locality_id": "L33000151"}, {"value": 24, "lon": 44.938541, "lat": 40.826687, "name": "Auto selected 40.82669, 44.93854", "locality_id": "L26679074"}, {"value": 24, "lon": 45.0415777, "lat": 40.514134, "name": "Geghark'unik', AM (40,514, 45,042)", "locality_id": "L9277285"}, {"value": 24, "lon": 44.2289, "lat": 40.435185, "name": "H20, Aragatsotn Province, AM (40,435, 44,229)", "locality_id": "L33778599"}, {"value": 24, "lon": 46.2898398, "lat": 39.4759304, "name": "Goris plateau", "locality_id": "L9980293"}, {"value": 24, "lon": 45.3290417, "lat": 39.7719059, "name": "Yeghegnadzor", "locality_id": "L31480600"}, {"value": 24, "lon": 45.142916, "lat": 39.765114, "name": "Auto selected 39.76511, 45.14292", "locality_id": "L36723474"}, {"value": 24, "lon": 44.7069373, "lat": 39.9480513, "name": "Ararat, AM (39,948, 44,707)", "locality_id": "L9249047"}, {"value": 24, "lon": 44.7749219, "lat": 40.1229383, "name": "Garni Temple to Havuts Tar", "locality_id": "L10574687"}, {"value": 23, "lon": 44.98404, "lat": 40.58235, "name": "Lake Sevan", "locality_id": "L22205465"}, {"value": 23, "lon": 44.9396537, "lat": 41.2242983, "name": "Tavush", "locality_id": "L8150046"}, {"value": 23, "lon": 44.366861, "lat": 40.042173, "name": "Ranchpar", "locality_id": "L9128168"}, {"value": 23, "lon": 44.872499, "lat": 40.738494, "name": "Drunk Forest, Dilijan", "locality_id": "L23014036"}, {"value": 23, "lon": 44.8520008, "lat": 40.7381283, "name": "Aghstev River in Dilijan", "locality_id": "L24367737"}, {"value": 23, "lon": 44.9141, "lat": 40.7615157, "name": "M4, Dilijan, Tavush Province, AM (40,762, 44,914)", "locality_id": "L9879326"}, {"value": 23, "lon": 44.4645328, "lat": 40.8107015, "name": "10 Margaryan Street, Vanadzor, Lori Province, AM (40,811, 44,465) \u0413\u043e\u0440\u0430 \u0421 \u041a\u0440\u0435\u0441\u0442\u043e\u043c", "locality_id": "L23627961"}, {"value": 23, "lon": 45.226093, "lat": 39.677238, "name": "Auto selected 39.67724, 45.22609", "locality_id": "L35878711"}, {"value": 23, "lon": 44.2704, "lat": 40.37098, "name": "Mount Aragats", "locality_id": "L22205503"}, {"value": 23, "lon": 45.004171, "lat": 40.732124, "name": "DiliVita Resthouse", "locality_id": "L24215650"}, {"value": 23, "lon": 45.2503715, "lat": 40.180182, "name": "M10, Lichk, Gegharkunik Province, AM (40,18, 45,25)", "locality_id": "L7673551"}, {"value": 23, "lon": 45.1696767, "lat": 39.7215433, "name": "Areni, Vayots Dzor, AM (39,722, 45,17)", "locality_id": "L27470474"}, {"value": 23, "lon": 44.8623705, "lat": 39.9624842, "name": "Fortress Tapi Berd", "locality_id": "L12481494"}, {"value": 23, "lon": 44.8587293, "lat": 40.7412017, "name": "Dilijian", "locality_id": "L9978694"}, {"value": 23, "lon": 45.4310524, "lat": 39.8785817, "name": "\u0540\u0565\u0580\u0574\u0578\u0576 / Hermon", "locality_id": "L32188920"}, {"value": 23, "lon": 44.9867891, "lat": 41.1351326, "name": "Noyemberyan Forest", "locality_id": "L8166840"}, {"value": 23, "lon": 44.3838852, "lat": 41.005156, "name": "Stepanavan", "locality_id": "L18112759"}, {"value": 23, "lon": 44.9699989, "lat": 40.6111581, "name": "Sevan, Dzknaget", "locality_id": "L11748194"}, {"value": 23, "lon": 44.8092198, "lat": 40.1368907, "name": "Geghard-Garni", "locality_id": "L6227970"}, {"value": 23, "lon": 44.7077513, "lat": 39.9464823, "name": "Ararat, AM (39,946, 44,708)", "locality_id": "L35391057"}, {"value": 23, "lon": 43.7166061, "lat": 41.0756249, "name": "(41,076, 43,717)", "locality_id": "L9885597"}, {"value": 22, "lon": 44.9925596, "lat": 40.5493202, "name": "Hrazdan Delta", "locality_id": "L16908471"}, {"value": 22, "lon": 46.2477207, "lat": 38.9062128, "name": "Petite gorge \u00e0 Meghri", "locality_id": "L7296310"}, {"value": 22, "lon": 43.7585343, "lat": 40.8546057, "name": "Marmashen Monastery Road, Vahramaberd, Shirak Province, AM (40.855, 43.759)", "locality_id": "L34965737"}, {"value": 22, "lon": 43.7733168, "lat": 40.934284, "name": "Amasia Gorge", "locality_id": "L19991524"}, {"value": 22, "lon": 44.5225668, "lat": 40.1858683, "name": "\u041a\u043e\u043b\u044c\u0446\u0435\u0432\u043e\u0439 \u043f\u0430\u0440\u043a", "locality_id": "L7500372"}, {"value": 22, "lon": 44.527354, "lat": 40.208764, "name": "\u0443\u043b\u0438\u0446\u0430 \u0422\u043e\u043b\u0431\u0443\u0445\u0438\u043d\u0430, \u0415\u0440\u0435\u0432\u0430\u043d AM-\u0410\u0440\u043c\u0435\u043d\u0438\u044f 40.20876, 44.52735", "locality_id": "L21274564"}, {"value": 22, "lon": 44.9889724, "lat": 40.549452, "name": "sevan national park", "locality_id": "L12140965"}, {"value": 22, "lon": 44.9547143, "lat": 40.6087226, "name": "M4, Gegharkunik Province, AM (40,609, 44,955)", "locality_id": "L18758249"}, {"value": 22, "lon": 43.8224103, "lat": 41.1534193, "name": "Armenia from Sameba village", "locality_id": "L19547115"}, {"value": 22, "lon": 44.4329924, "lat": 40.5055638, "name": "Aparan Reservoir", "locality_id": "L20966417"}, {"value": 22, "lon": 44.8824467, "lat": 40.7455406, "name": "Takhta, Ordzhonikidze Street, Dilijan, Tavush Province, AM (40,746, 44,882)", "locality_id": "L36043747"}, {"value": 22, "lon": 43.6197014, "lat": 41.0818643, "name": "Lake Arpi N, Shirak Province, AM (41,082, 43,62)", "locality_id": "L7901587"}, {"value": 22, "lon": 45.399041, "lat": 39.871901, "name": "\u054f-9-21 AM-\u0410\u0440\u043c\u0435\u043d\u0438\u044f (39.8719,45.3990)", "locality_id": "L22611765"}, {"value": 22, "lon": 44.2667597, "lat": 40.3209789, "name": "H20, Byurakan, Aragatsotn Province, AM (40,321, 44,267)", "locality_id": "L18854613"}, {"value": 22, "lon": 45.200914, "lat": 39.666913, "name": "(39.6669,45.2009)", "locality_id": "L7637677"}, {"value": 22, "lon": 44.4866836, "lat": 40.810795, "name": "Vanadzor, Lori Province, AM (40.811, 44.487)", "locality_id": "L35112225"}, {"value": 22, "lon": 45.175561, "lat": 39.865602, "name": "AM-Armenia (39.8656,45.1756)", "locality_id": "L7642840"}, {"value": 22, "lon": 44.7434115, "lat": 39.9452435, "name": "Ararat, AM", "locality_id": "L35369022"}, {"value": 22, "lon": 44.656581, "lat": 40.196349, "name": "(40.1963,44.6566)", "locality_id": "L7527819"}, {"value": 22, "lon": 44.9328201, "lat": 40.5119614, "name": "Lchashen", "locality_id": "L32722953"}, {"value": 22, "lon": 44.2531439, "lat": 40.4005572, "name": "H20, Aragatsotn Province, AM (40,401, 44,253)", "locality_id": "L9248165"}, {"value": 22, "lon": 44.5011997, "lat": 40.1770239, "name": "Yerevan - River Near Saint Sargis Vicarial Church", "locality_id": "L8993494"}, {"value": 22, "lon": 45.0260313, "lat": 40.5140158, "name": "Tsovasar Family Hotel, Gegharkunik Province, AM (40,514, 45,026)", "locality_id": "L33430373"}, {"value": 22, "lon": 45.425905, "lat": 39.709717, "name": "Auto selected 39.70972, 45.42591", "locality_id": "L24564627"}, {"value": 22, "lon": 44.3133682, "lat": 40.2996601, "name": "Ashtarak Highway, Aragatsotn Province, AM (40.3, 44.313)", "locality_id": "L31791944"}, {"value": 22, "lon": 44.250011, "lat": 40.403858, "name": "Stratovolcano Aragats", "locality_id": "L33433565"}, {"value": 22, "lon": 44.2705679, "lat": 40.3401658, "name": "Byurakam", "locality_id": "L9159885"}, {"value": 22, "lon": 45.23291, "lat": 39.936845, "name": "Martuni-Getap Highway AM-Armenia (39.9368,45.2329)", "locality_id": "L36723480"}, {"value": 22, "lon": 44.560803, "lat": 40.5182771, "name": "Aghveran", "locality_id": "L13307031"}, {"value": 22, "lon": 44.4305814, "lat": 41.003254, "name": "Lori Berd", "locality_id": "L20182257"}, {"value": 22, "lon": 43.831794, "lat": 40.789751, "name": "Cherkezi", "locality_id": "L31256018"}, {"value": 22, "lon": 44.9412767, "lat": 40.8248883, "name": "Dimats", "locality_id": "L30751714"}, {"value": 22, "lon": 44.2854533, "lat": 40.30984, "name": "\u0531nanun janaparh, Aragatsotn Province, AM (40,31, 44,285)", "locality_id": "L31321311"}, {"value": 22, "lon": 44.9833778, "lat": 40.7425222, "name": "PN Dilijan", "locality_id": "L7877482"}, {"value": 21, "lon": 45.0184445, "lat": 40.7633782, "name": "H30, Tavush Province, AM (40,763, 45,018)", "locality_id": "L9278091"}, {"value": 21, "lon": 44.949617, "lat": 40.527177, "name": "Sevan", "locality_id": "L19737632"}, {"value": 21, "lon": 46.2896941, "lat": 39.4089058, "name": "Old Halidzor Route, Halidzor, Syunik Province, AM (39,409, 46,29)", "locality_id": "L27674500"}, {"value": 21, "lon": 44.2259359, "lat": 40.4057854, "name": "Amberd Fortress Road", "locality_id": "L19361353"}, {"value": 21, "lon": 44.71543, "lat": 39.93017, "name": "AM-Armenia (39.9302,44.7154)", "locality_id": "L7533454"}, {"value": 21, "lon": 45.3261104, "lat": 40.4734683, "name": "Artanish Peninsula", "locality_id": "L12077198"}, {"value": 21, "lon": 44.273456, "lat": 40.3124961, "name": "H20, Aragatsotn Province, AM (40.312, 44.273)", "locality_id": "L23543026"}, {"value": 21, "lon": 44.7071875, "lat": 40.3483806, "name": "Gutansar", "locality_id": "L22525969"}, {"value": 21, "lon": 44.267, "lat": 40.321, "name": "Byurakan", "locality_id": "L18994423"}, {"value": 21, "lon": 44.430618, "lat": 40.010454, "name": "Auto selected 40.01045, 44.43062 \u043c\u0430\u0441\u0438\u0441", "locality_id": "L19413747"}, {"value": 21, "lon": 44.200326, "lat": 40.453075, "name": "Mt Aragats Summit Rd at 40.45307, 44.20033", "locality_id": "L24592912"}, {"value": 21, "lon": 45.2410404, "lat": 39.975893, "name": "M10, Gegharkunik Province, AM (39,976, 45,241)", "locality_id": "L9276519"}, {"value": 21, "lon": 45.0040308, "lat": 40.7319528, "name": "DiliVita Hotel", "locality_id": "L24197633"}, {"value": 21, "lon": 44.1929142, "lat": 40.5252084, "name": "Mount Aragats", "locality_id": "L9585763"}, {"value": 21, "lon": 44.380821, "lat": 40.40808, "name": "Armenian Alphabet Monument", "locality_id": "L25235120"}, {"value": 21, "lon": 44.8181045, "lat": 40.1402493, "name": "Geghard Monastery Road, Goght, Ararat Province, AM (40,14, 44,818)", "locality_id": "L9289112"}, {"value": 21, "lon": 43.8287018, "lat": 40.780695, "name": "Mother Armenia", "locality_id": "L32421143"}, {"value": 21, "lon": 43.7960916, "lat": 41.1378463, "name": "Bavra", "locality_id": "L31939413"}, {"value": 21, "lon": 45.24923, "lat": 40.0379, "name": "Vardenyats Pass road - farm", "locality_id": "L22205472"}, {"value": 21, "lon": 44.2515988, "lat": 40.4083799, "name": "Mt Aragats Summit road,  Aragatsotn Province, AM (40.408, 44.252)", "locality_id": "L24466354"}, {"value": 20, "lon": 45.2688258, "lat": 40.4993683, "name": "Shoghakat, Gegharkunik Province, AM (40.499, 45.269)", "locality_id": "L36534093"}, {"value": 20, "lon": 44.8507947, "lat": 40.7372155, "name": "Dilijan Monument to the Great Patriotic War", "locality_id": "L9978861"}, {"value": 20, "lon": 44.1758589, "lat": 40.6225946, "name": "\u0531nanun janaparh, Geghadzor, Aragatsotn Province, AM (40.623, 44.176)", "locality_id": "L35869162"}, {"value": 20, "lon": 45.232559, "lat": 39.684682, "name": "Auto selected 39.68468, 45.23256", "locality_id": "L21445321"}, {"value": 20, "lon": 43.785068, "lat": 40.741862, "name": "Akhurik", "locality_id": "L31208278"}, {"value": 20, "lon": 44.650726, "lat": 40.459165, "name": "Bjni, Armenia", "locality_id": "L21016146"}, {"value": 20, "lon": 44.4899571, "lat": 40.7949192, "name": "Abovyan Street, Vanadzor, Lori Province, AM (40,795, 44,49)", "locality_id": "L19025424"}, {"value": 20, "lon": 44.217792, "lat": 40.442748, "name": "Mt Aragats Summit Rd at 40.44275, 44.21779", "locality_id": "L24592873"}, {"value": 20, "lon": 45.3652096, "lat": 39.8716884, "name": "Zorats Church", "locality_id": "L16614507"}, {"value": 20, "lon": 45.1058431, "lat": 40.4229504, "name": "M10, Gegharkunik Province, AM (40.423, 45.106)", "locality_id": "L23657107"}, {"value": 20, "lon": 45.1029083, "lat": 40.4260928, "name": "M10, Gegharkunik Province, AM (40.426, 45.103)", "locality_id": "L37330259"}, {"value": 20, "lon": 44.4034739, "lat": 40.5272333, "name": "Kuchak road to Aparan", "locality_id": "L22498150"}, {"value": 20, "lon": 44.515221, "lat": 40.185508, "name": "Freedom Square, Yerevan AM-Armenia (40.1855,44.5152)", "locality_id": "L18158747"}, {"value": 20, "lon": 44.505488, "lat": 40.176897, "name": "1-\u0439 \u043f\u0435\u0440\u0435\u0443\u043b\u043e\u043a \u0443\u043b\u0438\u0446\u044b \u0417\u0430\u043a\u0438\u044f\u043d\u0430, \u0415\u0440\u0435\u0432\u0430\u043d AM-\u0410\u0440\u043c\u0435\u043d\u0438\u044f (40.1769,44.5055)", "locality_id": "L36532488"}, {"value": 20, "lon": 45.4264636, "lat": 39.7104841, "name": "E117, Vayots Dzor Province, AM (39,71, 45,426)", "locality_id": "L24490402"}, {"value": 20, "lon": 45.27161, "lat": 40.497785, "name": "Shorzha", "locality_id": "L27817390"}, {"value": 20, "lon": 44.9514627, "lat": 39.8705526, "name": "AR - Lanjanist", "locality_id": "L8118883"}, {"value": 20, "lon": 44.9756412, "lat": 40.741689, "name": "Dilijan NP - Parz Lake to Gosh", "locality_id": "L26110057"}, {"value": 20, "lon": 44.661135, "lat": 40.185702, "name": "(40.1857,44.6611)", "locality_id": "L7527816"}, {"value": 20, "lon": 46.431011, "lat": 39.500256, "name": "AM-Armenia (39,5003,46,4310)", "locality_id": "L6246705"}, {"value": 20, "lon": 43.6405477, "lat": 41.0953164, "name": "Unnamed Road, Shirak Province, AM (41,095, 43,641)", "locality_id": "L9886360"}, {"value": 20, "lon": 44.3985697, "lat": 40.2974761, "name": "Nor Yerznka", "locality_id": "L9157465"}, {"value": 20, "lon": 44.1935693, "lat": 40.4590358, "name": "H20, Mt Aragats, Aragatsotn Province, AM (40,459, 44,194)", "locality_id": "L19341664"}, {"value": 20, "lon": 44.2522222, "lat": 40.5736389, "name": "road to Mount Aragaz", "locality_id": "L9872092"}, {"value": 20, "lon": 46.24698, "lat": 39.394189, "name": "39.39419, 46.24698", "locality_id": "L37456380"}, {"value": 20, "lon": 44.313, "lat": 40.3, "name": "Field near Ashtarak", "locality_id": "L35017560"}, {"value": 20, "lon": 46.2985817, "lat": 39.4166111, "name": "(39,417, 46,299) tatev", "locality_id": "L7877344"}, {"value": 20, "lon": 44.6906867, "lat": 39.9632674, "name": "(39,963, 44,691)", "locality_id": "L9249474"}, {"value": 20, "lon": 44.9609179, "lat": 40.7498631, "name": "\u0422\u0430\u0432\u0443\u0448, AM (40,75, 44,961)", "locality_id": "L23902125"}, {"value": 20, "lon": 45.2339177, "lat": 39.932413, "name": "Vardenyants pass", "locality_id": "L37479624"}, {"value": 20, "lon": 44.8825283, "lat": 40.75659, "name": "Tbilisyan Highway, Dilijan, Tavush Province, AM (40,757, 44,883)", "locality_id": "L26829079"}, {"value": 20, "lon": 46.1976492, "lat": 38.8664274, "name": "Agarak", "locality_id": "L7310122"}, {"value": 20, "lon": 44.514606, "lat": 40.1809124, "name": "7 Pushkin Street, Yerevan, Yerevan, AM (40,181, 44,515)", "locality_id": "L24981089"}, {"value": 20, "lon": 45.2055112, "lat": 39.7228318, "name": "Noravank Monastery Road, Vayots Dzor Province, AM (39.723, 45.206)", "locality_id": "L32145787"}, {"value": 20, "lon": 44.266196, "lat": 40.377141, "name": "Auto selected 40.37714, 44.26620 forest", "locality_id": "L31549642"}, {"value": 20, "lon": 45.110107, "lat": 40.226384, "name": "(40,226, 45,11)", "locality_id": "L9692146"}, {"value": 20, "lon": 45.6701433, "lat": 39.8354451, "name": "Chermug, Vayots Dzor Province, AM (39,835, 45,67)", "locality_id": "L19429664"}, {"value": 19, "lon": 44.9662646, "lat": 41.2193387, "name": "Zorakan Lay-by", "locality_id": "L26880931"}, {"value": 19, "lon": 44.9163708, "lat": 40.7629263, "name": "M4, Dilijan, Tavush Province, AM (40,763, 44,916)", "locality_id": "L31375720"}, {"value": 19, "lon": 44.7518064, "lat": 39.7874601, "name": "Armash Wetlands 002", "locality_id": "L13606428"}, {"value": 19, "lon": 44.6258919, "lat": 40.1753656, "name": "Jrvezh Forest Park", "locality_id": "L11748171"}, {"value": 19, "lon": 45.1378119, "lat": 40.867142, "name": "Ijevan Dendropark", "locality_id": "L7155553"}, {"value": 19, "lon": 44.264189, "lat": 40.357611, "name": "Auto selected 40.35761, 44.26419", "locality_id": "L18837065"}, {"value": 19, "lon": 44.3917608, "lat": 40.0870026, "name": "Zorak", "locality_id": "L9582767"}, {"value": 19, "lon": 44.86479, "lat": 40.7396217, "name": "Dilidjan City Park, AM (40,74, 44,865)", "locality_id": "L27469982"}, {"value": 19, "lon": 44.1920317, "lat": 40.4710886, "name": "H20, Mt Aragats, Aragatsotn Province, AM (40,471, 44,192)", "locality_id": "L19341658"}, {"value": 19, "lon": 44.82653, "lat": 39.79179, "name": "Ooranots", "locality_id": "L22205499"}, {"value": 19, "lon": 45.42585, "lat": 39.710211, "name": "Road to Zedea", "locality_id": "L18840164"}, {"value": 19, "lon": 44.9157388, "lat": 40.7883152, "name": "Haghartsin Road, Tavush Province, AM (40.788, 44.916)", "locality_id": "L32225919"}, {"value": 19, "lon": 45.3415092, "lat": 39.7411693, "name": "H40, Agarakadzor, Vayots Dzor Province, AM (39,741, 45,342)", "locality_id": "L9859441"}, {"value": 19, "lon": 45.4746577, "lat": 40.4108436, "name": "Tsapatagh", "locality_id": "L12077139"}, {"value": 19, "lon": 45.2258041, "lat": 39.6859067, "name": "Noravank Monastery Road, Vayots Dzor Province, AM (39,686, 45,226)", "locality_id": "L18828148"}, {"value": 19, "lon": 45.6659896, "lat": 39.8325528, "name": "27 Myasnikyan Street, Chermug, Vayots Dzor Province, AM (39.833, 45.666)", "locality_id": "L15594379"}, {"value": 18, "lon": 45.1430104, "lat": 39.7645993, "name": "Noravank B&B, Chiva, Vayots Dzor Province, AM (39.765, 45.143)", "locality_id": "L24397108"}, {"value": 18, "lon": 44.6003401, "lat": 39.90094, "name": "H11, Pokr Vedi, Ararat Province, AM (39.901, 44.6)", "locality_id": "L34048204"}, {"value": 18, "lon": 45.2326548, "lat": 39.6844598, "name": "Noravank Monastery Road, Vayots Dzor Province, AM (39,684, 45,233)", "locality_id": "L9868199"}, {"value": 18, "lon": 45.239882, "lat": 39.9752913, "name": "M10, Gegharkunik Province, AM (39.975, 45.24)", "locality_id": "L26327817"}, {"value": 18, "lon": 44.2650403, "lat": 40.3574881, "name": "H20, Antarut, Aragatsotn Province, AM (40.357, 44.265)", "locality_id": "L23542659"}, {"value": 18, "lon": 44.517817, "lat": 40.178353, "name": "Yerevan\u2014Ani Grand Hotel", "locality_id": "L23952007"}, {"value": 18, "lon": 45.609, "lat": 39.76, "name": "Gndevank Monastery Road", "locality_id": "L18983166"}, {"value": 18, "lon": 45.1688833, "lat": 39.8446536, "name": "Mt Gndasar, Vayots Dzor Province, AM (39.845, 45.169)", "locality_id": "L24388765"}, {"value": 18, "lon": 44.4816353, "lat": 40.1910153, "name": "Kievyan Bridge, Yerevan", "locality_id": "L33131598"}, {"value": 18, "lon": 44.516511, "lat": 40.1776522, "name": "Min Env, Yerevan, AM (40.178, 44.517)", "locality_id": "L31512921"}, {"value": 18, "lon": 44.6343545, "lat": 40.959712, "name": "Pambak&Dzoraget Coinfluence, Avan Dzoraget, \u0414\u0441\u0435\u0445, \u041b\u043e\u0440\u0438, AM (40,96, 44,634)", "locality_id": "L31554741"}, {"value": 18, "lon": 44.2740916, "lat": 40.266274, "name": "\u0531nanun janaparh, Voskehat (Aragatsotn), Armavir Province, AM (40,266, 44,274)", "locality_id": "L24270571"}, {"value": 18, "lon": 44.764862, "lat": 39.785995, "name": "farm (IBA)", "locality_id": "L38020519"}, {"value": 18, "lon": 44.6912725, "lat": 39.8782964, "name": "Unnamed Road, Goravan, Ararat Province, AM (39,878, 44,691)", "locality_id": "L9256383"}, {"value": 18, "lon": 44.4726864, "lat": 40.1559293, "name": "Hrazdan River south of lake", "locality_id": "L25105831"}, {"value": 18, "lon": 44.8687876, "lat": 40.7417149, "name": "Dilijan Medical Centre", "locality_id": "L38191395"}, {"value": 18, "lon": 44.8910819, "lat": 40.8022788, "name": "Haghartsin Road, Tavush Province, AM (40,802, 44,891)", "locality_id": "L9876111"}, {"value": 18, "lon": 44.5478171, "lat": 40.6081286, "name": "Kotayk', AM (40,608, 44,548)", "locality_id": "L9283371"}, {"value": 18, "lon": 45.189221, "lat": 39.713435, "name": "Cute canyon", "locality_id": "L31843646"}, {"value": 18, "lon": 44.771836, "lat": 39.796214, "name": "storks nest vilage", "locality_id": "L25248029"}, {"value": 18, "lon": 44.641335, "lat": 40.926211, "name": "Auto selected 40.92621, 44.64134", "locality_id": "L31913948"}, {"value": 18, "lon": 45.2356883, "lat": 39.9489133, "name": "Selim, Vardenyats Pass, AM (39,949, 45,236)", "locality_id": "L27472750"}, {"value": 18, "lon": 44.888328, "lat": 40.6630672, "name": "Semyonovka", "locality_id": "L32125978"}, {"value": 18, "lon": 44.606934, "lat": 41.064197, "name": "Fields north of Uzunla", "locality_id": "L20190808"}, {"value": 18, "lon": 44.4988034, "lat": 40.1792265, "name": "Yerevan, Hrazdan Gorge", "locality_id": "L9973862"}, {"value": 18, "lon": 45.191197, "lat": 39.715573, "name": "Canton 39.71557, 45.19120", "locality_id": "L18758305"}, {"value": 18, "lon": 44.6533744, "lat": 40.9470857, "name": "Lori Province, AM (40.947, 44.653)", "locality_id": "L15586681"}, {"value": 18, "lon": 45.626777, "lat": 39.650067, "name": "(39.6501,45.6268)", "locality_id": "L7598715"}, {"value": 18, "lon": 44.4876727, "lat": 40.1873287, "name": "Yerevan -- genocide memorial", "locality_id": "L9973866"}, {"value": 18, "lon": 45.1784835, "lat": 40.3746842, "name": "Noratus, Gegharkunik Province, AM (40.375, 45.178)", "locality_id": "L32787661"}, {"value": 18, "lon": 45.6840706, "lat": 39.8335205, "name": "Jermak Gorge", "locality_id": "L9583117"}, {"value": 18, "lon": 45.204222, "lat": 39.731813, "name": "Auto selected 39.73181, 45.20422", "locality_id": "L37684534"}, {"value": 18, "lon": 44.562521, "lat": 40.5184646, "name": "Arthurs Aghveran Restort", "locality_id": "L18730786"}, {"value": 18, "lon": 44.569504, "lat": 40.2010538, "name": "Nor Nork", "locality_id": "L11755580"}, {"value": 18, "lon": 45.2772516, "lat": 40.4767947, "name": "\u0531nanun janaparh, Gegharkunik Province, AM (40.477, 45.277)", "locality_id": "L36556439"}, {"value": 18, "lon": 44.4854578, "lat": 40.790234, "name": "Vanadzor, Lori Province, AM (40.79, 44.485)", "locality_id": "L35116006"}, {"value": 18, "lon": 45.1513755, "lat": 40.7365343, "name": "\u0422\u0430\u0432\u0443\u0448, AM (40,737, 45,151)", "locality_id": "L26283761"}, {"value": 18, "lon": 44.7439183, "lat": 39.7797663, "name": "Armash Wetlands 001", "locality_id": "L13606273"}, {"value": 18, "lon": 45.3016533, "lat": 40.4635367, "name": "\u0531nanun janaparh, Gegharkunik Province, AM (40,464, 45,302)", "locality_id": "L25764098"}, {"value": 18, "lon": 44.8647518, "lat": 40.7398888, "name": "Dilijan", "locality_id": "L11589311"}, {"value": 18, "lon": 44.525032, "lat": 40.176911, "name": "Aygestan 3rd street, Yerevan AM-Armenia 40.17691, 44.52503", "locality_id": "L12221668"}, {"value": 18, "lon": 45.6088825, "lat": 39.7598452, "name": "Gndevank Monastery Road", "locality_id": "L18785271"}, {"value": 18, "lon": 44.4853732, "lat": 40.1827771, "name": "4 Tsitsernakaberd Highway, Yerevan, Yerevan, AM (40,183, 44,485)", "locality_id": "L34362525"}, {"value": 18, "lon": 45.1915795, "lat": 39.7113019, "name": "Mudflow dam Areni (39,711, 45,192)", "locality_id": "L30653931"}, {"value": 17, "lon": 43.8353187, "lat": 40.7851118, "name": "Central Park, Gyumri, Shirak Province, AM", "locality_id": "L30365703"}, {"value": 17, "lon": 44.6365674, "lat": 40.1735923, "name": "H3, Voghjaberd, Yerevan, AM (40,174, 44,637)", "locality_id": "L9854211"}, {"value": 17, "lon": 44.7318633, "lat": 40.1107567, "name": "Garni Gorge, Kotayk, AM (40,111, 44,732)", "locality_id": "L27473476"}, {"value": 17, "lon": 45.0654765, "lat": 41.0340333, "name": "Arakelots Monastery", "locality_id": "L8166846"}, {"value": 17, "lon": 44.9394883, "lat": 39.8612117, "name": "Vosketap-Vedi-Urtsadzor-Lanjar Highway, Lanjanist, Ararat Province, AM (39,861, 44,939)", "locality_id": "L31375540"}, {"value": 17, "lon": 44.434644, "lat": 40.014523, "name": "Auto selected 40.01452, 44.43464 Masis", "locality_id": "L20049151"}, {"value": 17, "lon": 44.770846, "lat": 39.788651, "name": "Amash ponds 39.78865, 44.77085", "locality_id": "L32147468"}, {"value": 17, "lon": 44.2652874, "lat": 40.3519828, "name": "Antarut Woods (Summit Road)", "locality_id": "L24048174"}, {"value": 17, "lon": 45.1179127, "lat": 40.8511217, "name": "Igevan (Aghstev River)", "locality_id": "L24032797"}, {"value": 17, "lon": 44.7502645, "lat": 40.1194222, "name": "Azad River Gorge", "locality_id": "L26422957"}, {"value": 17, "lon": 45.6297464, "lat": 39.7619543, "name": "H42, Gndevaz, Vayots Dzor Province, AM (39,762, 45,63)", "locality_id": "L24487976"}, {"value": 17, "lon": 44.2670426, "lat": 40.3587414, "name": "H20, Antarut, Aragatsotn Province, AM (40.359, 44.267)", "locality_id": "L31793303"}, {"value": 17, "lon": 44.9494322, "lat": 40.5181797, "name": "Marshes West of the road near lake Sevan", "locality_id": "L9777336"}, {"value": 17, "lon": 44.7700604, "lat": 39.7954709, "name": "Surenavan", "locality_id": "L9973872"}, {"value": 17, "lon": 44.2309633, "lat": 40.40011, "name": "Amberd Road, Aragatsotn Province, AM (40,4, 44,231)", "locality_id": "L27469959"}, {"value": 17, "lon": 44.997916, "lat": 40.7281426, "name": "gosh)armenia", "locality_id": "L11104748"}, {"value": 17, "lon": 43.753827, "lat": 40.806346, "name": "Ajkavan-Vohgi", "locality_id": "L32613430"}, {"value": 17, "lon": 44.5166131, "lat": 40.177572, "name": "Khachkar Square", "locality_id": "L25765627"}, {"value": 17, "lon": 44.6776219, "lat": 40.3388998, "name": "Provincia di Kotayk', AM (40,339, 44,678)", "locality_id": "L36078518"}, {"value": 17, "lon": 44.9472141, "lat": 40.2257778, "name": "Azhdahak", "locality_id": "L7846717"}, {"value": 17, "lon": 46.0286808, "lat": 39.5517727, "name": "Karahunj", "locality_id": "L9978517"}, {"value": 17, "lon": 45.0144196, "lat": 39.8130853, "name": "Hells Canyon", "locality_id": "L35947610"}, {"value": 16, "lon": 45.1922483, "lat": 39.7149483, "name": "Areni, H40, Vayots Dzor Province, AM (39,715, 45,192)", "locality_id": "L27473016"}, {"value": 16, "lon": 44.6358988, "lat": 41.0040518, "name": "Kobayr Monastery Road, Lori Province, AM (41.004, 44.636)", "locality_id": "L36201453"}, {"value": 16, "lon": 44.6448913, "lat": 41.0924153, "name": "4-5 Yerevanyan Highway, Alaverdi, Lori Province, AM (41,092, 44,645)", "locality_id": "L28618581"}, {"value": 16, "lon": 44.5967666, "lat": 39.8609074, "name": "Lusarat", "locality_id": "L27535517"}, {"value": 16, "lon": 44.381413, "lat": 40.998223, "name": "Spandaryan street, Step'Anavan AM-Armenia 40.99822, 44.38141", "locality_id": "L28820980"}, {"value": 16, "lon": 44.247315, "lat": 40.4171517, "name": "Aragats Road (H20), Aragatsotn Province, AM (40,417, 44,247)", "locality_id": "L27470180"}, {"value": 16, "lon": 44.594966, "lat": 40.127252, "name": "Near Vokhchabert", "locality_id": "L16320211"}, {"value": 16, "lon": 44.7353486, "lat": 40.7184055, "name": "Fioletovov Road", "locality_id": "L26940212"}, {"value": 16, "lon": 44.48572, "lat": 40.814703, "name": "Railway Workers park", "locality_id": "L29620494"}, {"value": 16, "lon": 43.7573412, "lat": 40.8485088, "name": "Marmashen Monastery", "locality_id": "L18252391"}, {"value": 16, "lon": 44.662256, "lat": 40.4067721, "name": "Kar Kor", "locality_id": "L17834952"}, {"value": 16, "lon": 44.7237797, "lat": 39.9837461, "name": "\u0410\u0440\u0430\u0440\u0430\u0442, AM (39,984, 44,724)", "locality_id": "L29868991"}, {"value": 16, "lon": 45.369628, "lat": 39.869236, "name": "Hotel Arevi 39.86924, 45.36963", "locality_id": "L24494651"}, {"value": 16, "lon": 44.7430887, "lat": 39.9342457, "name": "Ararat", "locality_id": "L33462434"}, {"value": 16, "lon": 44.23655, "lat": 40.406226, "name": "Mt Aragats road and meadow (40.4062,44.2366)", "locality_id": "L32184733"}, {"value": 16, "lon": 45.2092915, "lat": 39.6224507, "name": "Khachik area", "locality_id": "L17452391"}, {"value": 16, "lon": 44.2221572, "lat": 40.4407666, "name": "H20, Mt Aragats, Aragatsotn Province, AM (40,441, 44,222)", "locality_id": "L19341641"}, {"value": 16, "lon": 44.616462, "lat": 41.03303, "name": "Fields south of Uzunla", "locality_id": "L20190810"}, {"value": 16, "lon": 45.7275218, "lat": 39.896397, "name": "Vayots' Dzor, AM (39,896, 45,728)", "locality_id": "L9268975"}, {"value": 16, "lon": 44.8648757, "lat": 40.73892, "name": "Dilijan", "locality_id": "L7395995"}, {"value": 16, "lon": 45.1057434, "lat": 40.4318941, "name": "Hayravank Monastery", "locality_id": "L9114576"}, {"value": 16, "lon": 44.380553, "lat": 40.40761, "name": "Armenian Alphabet Monument, 40.40761, 44.38055", "locality_id": "L20197190"}, {"value": 16, "lon": 44.7602, "lat": 39.7798425, "name": "Armash", "locality_id": "L33461825"}, {"value": 16, "lon": 45.2373378, "lat": 40.1563064, "name": "Lichk", "locality_id": "L25055835"}, {"value": 16, "lon": 46.344409, "lat": 39.5094213, "name": "Goris", "locality_id": "L9582830"}, {"value": 16, "lon": 46.2733628, "lat": 39.3624655, "name": "Route H45 pr\u00e8s d'Aghvani", "locality_id": "L7729714"}, {"value": 16, "lon": 44.890159, "lat": 40.801262, "name": "Auto selected 40.80126, 44.89016", "locality_id": "L21456873"}, {"value": 16, "lon": 44.4534771, "lat": 40.2960978, "name": "Aragatsotn Province, AM (40.296, 44.453)", "locality_id": "L24278896"}, {"value": 16, "lon": 45.02842, "lat": 40.511757, "name": "Auto selected 40.51176, 45.02842", "locality_id": "L37618699"}, {"value": 16, "lon": 44.571445, "lat": 40.1146643, "name": "M15, Yerevan, Yerevan, AM (40,115, 44,571)", "locality_id": "L23105496"}, {"value": 16, "lon": 44.9139536, "lat": 40.7609492, "name": "Intersection of M4 and Parz Lich Rd.", "locality_id": "L19456308"}, {"value": 16, "lon": 44.6987309, "lat": 39.9453089, "name": "Ararat, AM (39,945, 44,699)", "locality_id": "L9249619"}, {"value": 16, "lon": 44.6539769, "lat": 40.6977395, "name": "Unanum Janaparh", "locality_id": "L31979558"}, {"value": 16, "lon": 44.6661115, "lat": 41.0877104, "name": "Sanain Monastery", "locality_id": "L31345484"}, {"value": 16, "lon": 44.7081414, "lat": 39.9395735, "name": "Ararat, AM (39,94, 44,708)", "locality_id": "L9251219"}, {"value": 16, "lon": 45.2059244, "lat": 39.6459726, "name": "Amaghu Valley  and  Noravank Monastery (IBA)", "locality_id": "L33461378"}, {"value": 16, "lon": 44.2004533, "lat": 40.4524083, "name": "H20, Aragatsotn Province, AM (40.452, 44.2)", "locality_id": "L32997214"}, {"value": 16, "lon": 44.847237, "lat": 41.2310708, "name": "Ptghavan, Lori Province, AM (41,231, 44,847)", "locality_id": "L25059119"}, {"value": 16, "lon": 45.6093399, "lat": 39.7594994, "name": "Vayots Dzor Province, AM (39,759, 45,609)", "locality_id": "L9863749"}, {"value": 16, "lon": 46.0797713, "lat": 39.5459974, "name": "E117, Syunik Province, AM (39,546, 46,08)", "locality_id": "L31560238"}, {"value": 16, "lon": 45.203544, "lat": 39.7315288, "name": "Areni Environment, Vayots Dzor Province, AM (39,732, 45,204)", "locality_id": "L26303454"}, {"value": 16, "lon": 44.253036, "lat": 40.400428, "name": "Auto selected 40.40043, 44.25304", "locality_id": "L31173917"}, {"value": 16, "lon": 46.3281498, "lat": 39.525601, "name": "1 Artsakhyan Highway, Goris, Syunik Province, AM (39,526, 46,328)", "locality_id": "L7877339"}, {"value": 16, "lon": 44.4526235, "lat": 40.1530239, "name": "Teishebaini Fortress", "locality_id": "L25431682"}, {"value": 16, "lon": 45.0788454, "lat": 40.9163888, "name": "Apaga Resort", "locality_id": "L26539044"}, {"value": 16, "lon": 45.2435917, "lat": 40.0314533, "name": "M10, Gegharkunik Province, AM (40,031, 45,244)", "locality_id": "L9872456"}, {"value": 16, "lon": 44.58919, "lat": 40.309589, "name": "Auto selected 40.30959, 44.58919", "locality_id": "L21380915"}, {"value": 16, "lon": 45.9938335, "lat": 39.552269, "name": "Shaki Waterfall", "locality_id": "L9978509"}, {"value": 16, "lon": 44.4897235, "lat": 40.2250326, "name": "Yerevan, Yerevan, AM (40,225, 44,49)", "locality_id": "L23630029"}, {"value": 16, "lon": 45.231062, "lat": 39.682213, "name": "Auto selected 39.68221, 45.23106", "locality_id": "L23819645"}, {"value": 16, "lon": 44.990788, "lat": 40.509282, "name": "Lake Sevan (40.50928, 44.99079)", "locality_id": "L23910422"}, {"value": 15, "lon": 45.183135, "lat": 39.721402, "name": "Auto selected 39.72140, 45.18313", "locality_id": "L37684536"}, {"value": 15, "lon": 44.8557093, "lat": 40.7416288, "name": "Dilidschan, Tawusch, AM (40.742, 44.856)", "locality_id": "L32224557"}, {"value": 15, "lon": 45.2752525, "lat": 40.068016, "name": "M10, Gegharkunik Province, AM (40,068, 45,275)", "locality_id": "L7888759"}, {"value": 15, "lon": 44.7408342, "lat": 40.1145769, "name": "Garni Gorge", "locality_id": "L9114544"}, {"value": 15, "lon": 44.956216, "lat": 40.6037505, "name": "M4 to Lake Sevan", "locality_id": "L20469931"}, {"value": 15, "lon": 43.783409, "lat": 40.719031, "name": "Getk", "locality_id": "L31344620"}, {"value": 15, "lon": 44.910547, "lat": 40.798044, "name": "Auto selected 40.79804, 44.91055", "locality_id": "L31794702"}, {"value": 15, "lon": 44.5939766, "lat": 40.0695616, "name": "Azat Reservoir", "locality_id": "L22525548"}, {"value": 15, "lon": 44.2643491, "lat": 40.3576793, "name": "Gorge North of Byrukansn, Aragatsotn Province, AM (40.358, 44.264)", "locality_id": "L24319642"}, {"value": 15, "lon": 44.2699615, "lat": 40.3634266, "name": "Summit road to Mount Aragats near Hotel Amberd", "locality_id": "L17453166"}, {"value": 15, "lon": 44.5300388, "lat": 40.1687132, "name": "Under TV tower, Yerevan, Yerevan, AM (40.169, 44.53)", "locality_id": "L24525187"}, {"value": 15, "lon": 44.4986821, "lat": 40.8035179, "name": "\u041e\u0437\u0451\u0440\u0430", "locality_id": "L21581548"}, {"value": 15, "lon": 44.424305, "lat": 41.015355, "name": "H33, Stepanavan, Lori Province, AM (41,015, 44,424)", "locality_id": "L7898627"}, {"value": 15, "lon": 44.8895559, "lat": 40.8015131, "name": "Hsghartsin Monastery", "locality_id": "L31375748"}, {"value": 15, "lon": 44.205177, "lat": 40.450072, "name": "Mt Aragats Summit Rd at 40.45007, 44.20518", "locality_id": "L24593053"}, {"value": 15, "lon": 44.140749, "lat": 40.1381374, "name": "Metsamor", "locality_id": "L7313881"}, {"value": 15, "lon": 45.1542592, "lat": 40.4116521, "name": "Small lake near Noratus", "locality_id": "L9114569"}, {"value": 15, "lon": 45.124351, "lat": 39.790561, "name": "Auto selected 39.79056, 45.12435", "locality_id": "L24541556"}, {"value": 15, "lon": 44.7064224, "lat": 40.5278437, "name": "1 Khachik Muradyan Street, Tsaghkadzor, Kotayk Province, AM (40,528, 44,706)", "locality_id": "L23628493"}, {"value": 15, "lon": 46.4334948, "lat": 39.5015692, "name": "Unnamed Road, Syunik Province, AM (39,502, 46,433)", "locality_id": "L9746720"}, {"value": 15, "lon": 45.233, "lat": 39.6843, "name": "Noravank Monastery", "locality_id": "L22205477"}, {"value": 15, "lon": 44.9855974, "lat": 40.511286, "name": "Bashinjaghyan Hotel & Teahouse", "locality_id": "L37356381"}, {"value": 15, "lon": 44.8957246, "lat": 40.8023734, "name": "Haghartsin Road, Tavush Province, AM (40,802, 44,896)", "locality_id": "L18757202"},